\c:1494396026595*60\$GPGSV,3,1,12,06,11,199,-0,03,10,113,-0,13,14,265,41,17,62,270,-0*67
\c:1494396026596*63\$GPGSV,3,2,12,131,33,220,43,19,37,253,47,28,76,041,46,07,10,164,-0*50
\c:1494396026596*63\$GPGSV,3,3,12,22,14,087,-0,11,33,053,36,30,43,186,43,01,47,063,44*65
\c:1494396026633*6F\$GPZDA,202133.00,28,05,2017,00,00*6C
\c:1494396026633*6F\$GPGGA,202133,4206.5665,N,08750.5258,W,1,08,1.42,194.60,M,-34.268,M,,*72
\c:1494396026633*6F\$GPRMC,202133,A,4206.5665,N,08750.5258,W,0.0997,36.478,280517,,*0E
\c:1494396026633*6F\$GPGSA,A,3,00,00,00,00,00,00,00,00,,,,,2.2,1.4,1.7*31
\c:1494396027596*62\$GPGSV,3,1,12,06,11,199,-0,03,10,113,-0,13,14,265,41,17,62,270,-0*67
\c:1494396027596*62\$GPGSV,3,2,12,131,33,220,43,19,38,253,47,28,76,041,46,07,10,164,-0*5F
\c:1494396027596*62\$GPGSV,3,3,12,22,14,087,-0,11,33,053,37,30,43,186,43,01,47,063,44*64
\c:1494396027627*6B\$GPZDA,202134.00,28,05,2017,00,00*6B
\c:1494396027627*6B\$GPGGA,202134,4206.5665,N,08750.5258,W,1,08,1.42,194.66,M,-34.268,M,,*73
\c:1494396027627*6B\$GPRMC,202134,A,4206.5665,N,08750.5258,W,0.0706,4.213,280517,,*35
\c:1494396027627*6B\$GPGSA,A,3,00,00,00,00,00,00,00,00,,,,,2.2,1.4,1.7*31
\c:1494396028594*6F\$GPGSV,3,1,12,06,11,199,-0,03,10,113,-0,13,14,265,41,17,62,270,-0*67
\c:1494396028594*6F\$GPGSV,3,2,12,131,33,220,43,19,38,253,47,28,76,041,45,07,10,164,-0*5C
\c:1494396028594*6F\$GPGSV,3,3,12,22,14,087,-0,11,33,053,37,30,43,186,43,01,47,063,44*64
\c:1494396028622*61\$GPZDA,202135.00,28,05,2017,00,00*6A
\c:1494396028622*61\$GPGGA,202135,4206.5665,N,08750.5258,W,1,07,1.55,194.78,M,-34.268,M,,*74
\c:1494396028623*60\$GPRMC,202135,A,4206.5665,N,08750.5258,W,0.0722,34.800,280517,,*09
\c:1494396028623*60\$GPGSA,A,3,00,00,00,00,00,00,00,,,,,,2.3,1.6,1.7*32
\c:1494396029595*6F\$GPGSV,3,1,12,06,11,199,-0,03,10,113,-0,13,14,265,41,17,62,270,-0*67
\c:1494396029595*6F\$GPGSV,3,2,12,131,33,220,43,19,38,253,47,28,76,041,45,07,10,164,-0*5C
\c:1494396029595*6F\$GPGSV,3,3,12,22,14,087,-0,11,33,053,38,30,43,186,44,01,47,063,44*6C
\c:1494396029623*61\$GPZDA,202136.00,28,05,2017,00,00*69
\c:1494396029623*61\$GPGGA,202136,4206.5666,N,08750.5259,W,1,07,1.55,194.91,M,-34.268,M,,*72
\c:1494396029623*61\$GPRMC,202136,A,4206.5666,N,08750.5259,W,0.0667,26.022,280517,,*03
\c:1494396029623*61\$GPGSA,A,3,00,00,00,00,00,00,00,,,,,,2.3,1.6,1.7*32
\c:1494396030590*62\$GPGSV,3,1,12,06,11,199,-0,03,10,113,-0,13,14,265,41,17,62,270,-0*67
\c:1494396030591*63\$GPGSV,3,2,12,131,33,220,43,19,38,253,46,28,76,041,45,07,10,164,-0*5D
\c:1494396030591*63\$GPGSV,3,3,12,22,14,087,-0,11,33,053,38,30,43,186,44,01,47,063,44*6C
\c:1494396030647*6B\$GPZDA,202137.00,28,05,2017,00,00*68
\c:1494396030648*64\$GPGGA,202137,4206.5667,N,08750.5260,W,1,07,1.55,194.95,M,-34.268,M,,*7C
\c:1494396030648*64\$GPRMC,202137,A,4206.5667,N,08750.5260,W,0.0768,249.343,280517,,*38
\c:1494396030648*64\$GPGSA,A,3,00,00,00,00,00,00,00,,,,,,2.3,1.6,1.7*32
\c:1494396031595*66\$GPGSV,3,1,12,06,11,199,-0,03,10,113,-0,13,14,265,41,17,62,270,-0*67
\c:1494396031595*66\$GPGSV,3,2,12,131,33,220,43,19,38,253,46,28,76,041,45,07,10,164,-0*5D
\c:1494396031595*66\$GPGSV,3,3,12,22,14,087,-0,11,33,053,38,30,43,186,44,01,47,063,45*6D
\c:1494396031651*6D\$GPZDA,202138.00,28,05,2017,00,00*67
\c:1494396031651*6D\$GPGGA,202138,4206.5667,N,08750.5260,W,1,07,1.55,194.95,M,-34.268,M,,*73
\c:1494396031651*6D\$GPRMC,202138,A,4206.5667,N,08750.5260,W,0.0491,241.260,280517,,*3A
\c:1494396031651*6D\$GPGSA,A,3,00,00,00,00,00,00,00,,,,,,2.3,1.6,1.7*32
\c:1494396032593*63\$GPGSV,3,1,12,06,11,199,-0,03,10,113,-0,13,14,265,41,17,62,270,-0*67
\c:1494396032593*63\$GPGSV,3,2,12,131,33,220,43,19,38,253,45,28,76,041,45,07,10,164,-0*5E
\c:1494396032593*63\$GPGSV,3,3,12,22,14,087,-0,11,33,053,39,30,43,186,44,01,47,063,45*6C
\c:1494396032623*6B\$GPZDA,202139.00,28,05,2017,00,00*66
\c:1494396032623*6B\$GPGGA,202139,4206.5668,N,08750.5261,W,1,07,1.55,194.92,M,-34.268,M,,*7B
\c:1494396032623*6B\$GPRMC,202139,A,4206.5668,N,08750.5261,W,0.0764,165.183,280517,,*37
\c:1494396032623*6B\$GPGSA,A,3,00,00,00,00,00,00,00,,,,,,2.3,1.6,1.7*32
\c:1494396033591*60\$GPGSV,3,1,12,06,11,199,-0,03,10,113,-0,13,14,265,41,17,62,270,-0*67
\c:1494396033592*63\$GPGSV,3,2,12,131,33,220,43,19,38,253,45,28,76,041,45,07,10,164,-0*5E
\c:1494396033592*63\$GPGSV,3,3,12,22,14,087,-0,11,33,053,38,30,43,186,44,01,47,063,46*6E
\c:1494396033621*68\$GPZDA,202140.00,28,05,2017,00,00*68
\c:1494396033621*68\$GPGGA,202140,4206.5669,N,08750.5263,W,1,07,1.55,194.93,M,-34.268,M,,*77
\c:1494396033621*68\$GPRMC,202140,A,4206.5669,N,08750.5263,W,0.2280,275.889,280517,,*36
\c:1494396033621*68\$GPGSA,A,3,00,00,00,00,00,00,00,,,,,,2.3,1.6,1.7*32
\c:1494396034594*62\$GPGSV,3,1,12,06,11,199,-0,03,10,113,-0,13,14,265,40,17,62,270,36*7E
\c:1494396034594*62\$GPGSV,3,2,12,131,33,220,43,19,38,253,45,28,76,041,44,07,10,164,-0*5F
\c:1494396034594*62\$GPGSV,3,3,12,22,14,087,-0,11,33,053,37,30,43,186,45,01,47,063,45*63
\c:1494396034636*69\$GPZDA,202141.00,28,05,2017,00,00*69
\c:1494396034636*69\$GPGGA,202141,4206.5671,N,08750.5267,W,1,07,1.55,195.16,M,-34.268,M,,*77
\c:1494396034636*69\$GPRMC,202141,A,4206.5671,N,08750.5267,W,0.7086,298.323,280517,,*33
\c:1494396034636*69\$GPGSA,A,3,00,00,00,00,00,00,00,,,,,,2.3,1.6,1.7*32
\c:1494396035592*65\$GPGSV,3,1,12,06,11,199,-0,03,10,113,-0,13,14,265,39,17,62,270,40*71
\c:1494396035592*65\$GPGSV,3,2,12,131,33,220,43,19,38,253,45,28,76,041,43,07,10,164,-0*58
\c:1494396035592*65\$GPGSV,3,3,12,22,14,087,-0,11,33,053,-0,30,43,186,43,01,47,063,43*7A
\c:1494396035621*6E\$GPZDA,202142.00,28,05,2017,00,00*6A
\c:1494396035621*6E\$GPGGA,202142,4206.5672,N,08750.5270,W,1,08,1.42,195.35,M,-34.268,M,,*79
\c:1494396035622*6D\$GPRMC,202142,A,4206.5672,N,08750.5270,W,0.7086,298.323,280517,,*35
\c:1494396035622*6D\$GPGSA,A,3,00,00,00,00,00,00,00,00,,,,,2.2,1.4,1.7*31
\c:1494396036591*65\$GPGSV,3,1,12,06,11,199,-0,03,10,113,-0,13,14,265,38,17,62,270,43*73
\c:1494396036595*61\$GPGSV,3,2,12,131,33,220,-0,19,38,253,45,28,76,041,44,07,10,164,-0*45
\c:1494396036595*61\$GPGSV,3,3,12,22,14,087,-0,11,33,053,38,30,43,186,43,01,47,063,43*6C
\c:1494396036619*66\$GPZDA,202143.00,28,05,2017,00,00*6B
\c:1494396036619*66\$GPGGA,202143,4206.5674,N,08750.5276,W,1,08,1.42,195.57,M,-34.268,M,,*7C
\c:1494396036619*66\$GPRMC,202143,A,4206.5674,N,08750.5276,W,0.7086,298.323,280517,,*34
\c:1494396036619*66\$GPGSA,A,3,00,00,00,00,00,00,00,00,,,,,2.2,1.4,1.7*31
\c:1494396037592*67\$GPGSV,3,1,12,06,11,199,-0,03,10,113,-0,13,14,265,-0,17,62,270,44*62
\c:1494396037592*67\$GPGSV,3,2,12,131,33,220,47,19,38,253,47,28,76,041,45,07,10,164,-0*58
\c:1494396037592*67\$GPGSV,3,3,12,22,14,087,-0,11,33,053,38,30,43,186,44,01,47,063,44*6C
\c:1494396037629*64\$GPZDA,202144.00,28,05,2017,00,00*6C
\c:1494396037629*64\$GPGGA,202144,4206.5677,N,08750.5283,W,1,08,1.42,195.61,M,-34.268,M,,*77
\c:1494396037629*64\$GPRMC,202144,A,4206.5677,N,08750.5283,W,0.7086,298.323,280517,,*3A
\c:1494396037630*6C\$GPGSA,A,3,00,00,00,00,00,00,00,00,,,,,2.2,1.4,1.7*31
\c:1494396038592*68\$GPGSV,3,1,12,06,11,199,-0,03,10,113,-0,13,14,265,-0,17,62,270,45*63
\c:1494396038592*68\$GPGSV,3,2,12,131,33,220,47,19,38,253,47,28,76,041,46,07,10,164,-0*5B
\c:1494396038592*68\$GPGSV,3,3,12,22,14,086,-0,11,33,053,-0,30,43,186,44,01,47,063,44*7B
\c:1494396038631*62\$GPZDA,202145.00,28,05,2017,00,00*6D
\c:1494396038631*62\$GPGGA,202145,4206.5680,N,08750.5294,W,1,08,1.42,195.74,M,-34.268,M,,*7C
\c:1494396038631*62\$GPRMC,202145,A,4206.5680,N,08750.5294,W,0.7086,298.323,280517,,*35
\c:1494396038632*61\$GPGSA,A,3,00,00,00,00,00,00,00,00,,,,,2.2,1.4,1.7*31
\c:1494396039591*6A\$GPGSV,3,1,12,06,11,199,-0,03,10,113,-0,13,14,265,34,17,62,270,44*78
\c:1494396039591*6A\$GPGSV,3,2,12,131,33,220,47,19,38,253,46,28,76,041,46,07,10,164,-0*5A
\c:1494396039591*6A\$GPGSV,3,3,12,22,14,086,-0,11,33,053,-0,30,43,186,46,01,47,063,44*79
\c:1494396039626*65\$GPZDA,202146.00,28,05,2017,00,00*6E
\c:1494396039626*65\$GPGGA,202146,4206.5680,N,08750.5314,W,1,08,1.42,195.47,M,-34.268,M,,*76
\c:1494396039626*65\$GPRMC,202146,A,4206.5680,N,08750.5314,W,4.7146,266.598,280517,,*31
\c:1494396039626*65\$GPGSA,A,3,00,00,00,00,00,00,00,00,,,,,2.2,1.4,1.7*31
\c:1494396040591*64\$GPGSV,3,1,12,06,11,199,-0,03,10,113,-0,13,14,265,33,17,62,270,43*78
\c:1494396040591*64\$GPGSV,3,2,12,131,33,220,46,19,38,253,46,28,76,041,45,07,10,164,-0*58
\c:1494396040591*64\$GPGSV,3,3,12,22,14,086,-0,11,33,053,-0,30,43,186,46,01,47,063,44*79
\c:1494396040622*6F\$GPZDA,202147.00,28,05,2017,00,00*6F
\c:1494396040623*6E\$GPGGA,202147,4206.5676,N,08750.5330,W,1,08,1.42,195.18,M,-34.268,M,,*72
\c:1494396040623*6E\$GPRMC,202147,A,4206.5676,N,08750.5330,W,4.5621,249.495,280517,,*3A
\c:1494396040623*6E\$GPGSA,A,3,00,00,00,00,00,00,00,00,,,,,2.2,1.4,1.7*31
\c:1494396041594*60\$GPGSV,3,1,12,06,11,199,-0,03,10,113,-0,13,14,265,-0,17,62,270,43*65
\c:1494396041594*60\$GPGSV,3,2,12,131,33,220,46,19,38,253,46,28,76,041,45,07,10,164,-0*58
\c:1494396041594*60\$GPGSV,3,3,12,22,14,086,-0,11,33,053,-0,30,43,186,46,01,47,063,44*79
\c:1494396041627*6B\$GPZDA,202148.00,28,05,2017,00,00*60
\c:1494396041628*64\$GPGGA,202148,4206.5668,N,08750.5344,W,1,08,1.42,195.09,M,-34.268,M,,*71
\c:1494396041628*64\$GPRMC,202148,A,4206.5668,N,08750.5344,W,4.4726,228.237,280517,,*37
\c:1494396041628*64\$GPGSA,A,3,00,00,00,00,00,00,00,00,,,,,2.2,1.4,1.7*31
\c:1494396042591*66\$GPGSV,3,1,12,06,11,199,-0,03,10,113,-0,13,14,265,-0,17,62,270,44*62
\c:1494396042591*66\$GPGSV,3,2,12,131,33,220,45,19,38,253,46,28,76,041,44,07,10,164,-0*5A
\c:1494396042592*65\$GPGSV,3,3,12,22,14,086,-0,11,33,053,38,30,43,186,47,01,47,063,45*6F
\c:1494396043590*66\$GPGSV,3,1,12,06,11,199,-0,03,10,113,-0,13,14,265,-0,17,62,270,43*65
\c:1494396043591*67\$GPGSV,3,2,12,131,33,220,-0,19,38,253,45,28,76,041,44,07,10,164,-0*45
\c:1494396043591*67\$GPGSV,3,3,12,22,14,086,-0,11,33,053,39,30,43,186,46,01,47,063,46*6C
\c:1494396043622*6C\$GPZDA,202150.00,28,05,2017,00,00*69
\c:1494396043622*6C\$GPGGA,202150,4206.5651,N,08750.5372,W,1,08,1.42,195.17,M,-34.268,M,,*78
\c:1494396043622*6C\$GPRMC,202150,A,4206.5651,N,08750.5372,W,4.4726,228.237,280517,,*31
\c:1494396043622*6C\$GPGSA,A,3,00,00,00,00,00,00,00,00,,,,,2.2,1.4,1.7*31
\c:1494396044591*60\$GPGSV,3,1,12,06,11,199,-0,03,10,113,-0,13,14,265,-0,17,62,270,42*64
\c:1494396044592*63\$GPGSV,3,2,12,131,33,220,41,19,38,253,45,28,76,041,43,07,10,164,-0*5A
\c:1494396044592*63\$GPGSV,3,3,12,22,14,086,-0,11,33,053,40,30,43,186,46,01,47,063,46*62
\c:1494396044628*61\$GPZDA,202151.00,28,05,2017,00,00*68
\c:1494396044628*61\$GPGGA,202151,4206.5640,N,08750.5384,W,1,08,1.42,195.37,M,-34.268,M,,*72
\c:1494396044628*61\$GPRMC,202151,A,4206.5640,N,08750.5384,W,4.4726,228.237,280517,,*39
\c:1494396044628*61\$GPGSA,A,3,00,00,00,00,00,00,00,00,,,,,2.2,1.4,1.7*31
\c:1494396045595*65\$GPGSV,3,1,12,06,11,199,-0,03,10,113,-0,13,14,265,-0,17,62,270,42*64
\c:1494396045595*65\$GPGSV,3,2,12,131,33,220,44,19,38,253,45,28,76,041,43,07,10,164,-0*5F
\c:1494396045596*66\$GPGSV,3,3,12,22,14,086,-0,11,33,053,39,30,43,186,46,01,47,063,46*6C
\c:1494396045629*61\$GPZDA,202152.00,28,05,2017,00,00*6B
\c:1494396045629*61\$GPGGA,202152,4206.5629,N,08750.5395,W,1,08,1.42,195.64,M,-34.268,M,,*78
\c:1494396045629*61\$GPRMC,202152,A,4206.5629,N,08750.5395,W,4.7830,212.192,280517,,*3B
\c:1494396045629*61\$GPGSA,A,3,00,00,00,00,00,00,00,00,,,,,2.2,1.4,1.7*31
\c:1494396046597*64\$GPGSV,3,1,12,06,11,199,-0,03,10,113,-0,13,14,265,-0,17,62,270,43*65
\c:1494396046597*64\$GPGSV,3,2,12,131,33,220,46,19,38,253,46,28,76,041,43,07,10,164,-0*5E
\c:1494396046597*64\$GPGSV,3,3,12,22,14,086,-0,11,33,053,38,30,43,186,46,01,47,063,46*6D
\c:1494396046632*68\$GPZDA,202153.00,28,05,2017,00,00*6A
\c:1494396046632*68\$GPGGA,202153,4206.5617,N,08750.5405,W,1,08,1.42,195.89,M,-34.268,M,,*79
\c:1494396046632*68\$GPRMC,202153,A,4206.5617,N,08750.5405,W,4.7830,212.192,280517,,*39
\c:1494396046632*68\$GPGSA,A,3,00,00,00,00,00,00,00,00,,,,,2.2,1.4,1.7*31
\c:1494396047592*60\$GPGSV,3,1,12,06,11,199,-0,03,10,113,-0,13,14,265,-0,17,62,270,44*62
\c:1494396047592*60\$GPGSV,3,2,12,131,33,220,46,19,38,253,47,28,76,041,43,07,10,164,-0*5F
\c:1494396047592*60\$GPGSV,3,3,12,22,14,086,-0,11,33,053,37,30,43,186,46,01,47,063,46*62
\c:1494396047625*6F\$GPZDA,202154.00,28,05,2017,00,00*6D
\c:1494396047625*6F\$GPGGA,202154,4206.5607,N,08750.5419,W,1,08,1.42,196.23,M,-34.268,M,,*71
\c:1494396047625*6F\$GPRMC,202154,A,4206.5607,N,08750.5419,W,4.7830,212.192,280517,,*32
\c:1494396047625*6F\$GPGSA,A,3,00,00,00,00,00,00,00,00,,,,,2.2,1.4,1.7*31
\c:1494396048594*69\$GPGSV,3,1,12,06,11,199,-0,03,10,113,-0,13,14,265,-0,17,62,270,42*64
\c:1494396048594*69\$GPGSV,3,2,12,131,33,220,47,19,38,253,48,28,76,041,44,07,10,164,-0*56
\c:1494396048594*69\$GPGSV,3,3,12,22,14,086,-0,11,33,053,36,30,43,186,46,01,47,063,45*60
\c:1494396048627*62\$GPZDA,202155.00,28,05,2017,00,00*6C
\c:1494396048627*62\$GPGGA,202155,4206.5605,N,08750.5454,W,1,08,1.42,196.92,M,-34.268,M,,*71
\c:1494396048627*62\$GPRMC,202155,A,4206.5605,N,08750.5454,W,8.8333,266.817,280517,,*34
\c:1494396048627*62\$GPGSA,A,3,00,00,00,00,00,00,00,00,,,,,2.2,1.4,1.7*31
\c:1494396049594*68\$GPGSV,3,1,12,06,11,199,-0,03,10,113,-0,13,14,265,-0,17,62,270,41*67
\c:1494396049594*68\$GPGSV,3,2,12,131,33,220,46,19,38,253,48,28,76,041,45,07,10,164,-0*56
\c:1494396049594*68\$GPGSV,3,3,12,22,14,086,-0,11,33,053,35,30,43,186,46,01,47,063,45*63
\c:1494396049621*65\$GPZDA,202156.00,28,05,2017,00,00*6F
\c:1494396049622*66\$GPGGA,202156,4206.5603,N,08750.5488,W,1,07,1.55,196.78,M,-34.268,M,,*78
\c:1494396049622*66\$GPRMC,202156,A,4206.5603,N,08750.5488,W,8.8333,266.817,280517,,*30
\c:1494396049622*66\$GPGSA,A,3,00,00,00,00,00,00,00,,,,,,2.3,1.6,1.7*32
\c:1494396050597*63\$GPGSV,3,1,12,06,11,199,-0,03,10,113,-0,13,14,265,40,17,62,270,42*7D
\c:1494396050597*63\$GPGSV,3,2,12,131,33,220,45,19,38,253,48,28,76,041,45,07,10,164,-0*55
\c:1494396050597*63\$GPGSV,3,3,12,22,14,086,-0,11,33,053,34,30,43,186,46,01,47,063,45*62
\c:1494396050624*68\$GPZDA,202157.00,28,05,2017,00,00*6E
\c:1494396050624*68\$GPGGA,202157,4206.5604,N,08750.5530,W,1,07,1.55,196.42,M,-34.268,M,,*75
\c:1494396050624*68\$GPRMC,202157,A,4206.5604,N,08750.5530,W,8.8333,266.817,280517,,*34
\c:1494396050625*69\$GPGSA,A,3,00,00,00,00,00,00,00,,,,,,2.3,1.6,1.7*32
\c:1494396051597*62\$GPGSV,3,1,12,06,11,199,-0,03,10,113,-0,13,14,265,40,17,62,270,42*7D
\c:1494396051597*62\$GPGSV,3,2,12,131,33,220,44,19,38,253,49,28,76,041,46,07,10,164,-0*56
\c:1494396051597*62\$GPGSV,3,3,12,22,14,086,-0,11,33,053,-0,30,43,186,46,01,47,063,44*79
\c:1494396051621*6C\$GPZDA,202158.00,28,05,2017,00,00*61
\c:1494396051622*6F\$GPGGA,202158,4206.5605,N,08750.5582,W,1,08,1.42,196.58,M,-34.268,M,,*70
\c:1494396051622*6F\$GPRMC,202158,A,4206.5605,N,08750.5582,W,8.8333,266.817,280517,,*33
\c:1494396051622*6F\$GPGSA,A,3,00,00,00,00,00,00,00,00,,,,,2.2,1.4,1.7*31
\c:1494396052596*60\$GPGSV,3,1,12,06,11,199,-0,03,10,113,-0,13,14,265,39,17,62,270,42*73
\c:1494396052597*61\$GPGSV,3,2,12,131,33,220,-0,19,38,253,48,28,76,041,46,07,10,164,-0*4A
\c:1494396052597*61\$GPGSV,3,3,12,22,14,086,-0,11,33,053,-0,30,43,186,46,01,47,063,45*78
\c:1494396052620*6E\$GPZDA,202159.00,28,05,2017,00,00*60
\c:1494396052620*6E\$GPGGA,202159,4206.5607,N,08750.5638,W,1,08,1.42,196.54,M,-34.268,M,,*7D
\c:1494396052620*6E\$GPRMC,202159,A,4206.5607,N,08750.5638,W,8.8333,266.817,280517,,*32
\c:1494396052620*6E\$GPGSA,A,3,00,00,00,00,00,00,00,00,,,,,2.2,1.4,1.7*31
\c:1494396053596*61\$GPGSV,3,1,12,06,11,199,-0,03,10,113,-0,13,14,265,40,17,62,270,42*7D
\c:1494396053596*61\$GPGSV,3,2,12,131,33,220,-0,19,38,253,47,28,76,041,46,07,10,164,-0*45
\c:1494396053596*61\$GPGSV,3,3,12,22,14,086,-0,11,33,053,-0,30,43,186,45,01,47,063,45*7B
\c:1494396053620*6F\$GPZDA,202200.00,28,05,2017,00,00*6F
\c:1494396053620*6F\$GPGGA,202200,4206.5609,N,08750.5697,W,1,08,1.42,196.74,M,-34.268,M,,*7B
\c:1494396053620*6F\$GPRMC,202200,A,4206.5609,N,08750.5697,W,8.8333,266.817,280517,,*36
\c:1494396053620*6F\$GPGSA,A,3,00,00,00,00,00,00,00,00,,,,,2.2,1.4,1.7*31
\c:1494396054596*66\$GPGSV,3,1,12,06,11,199,-0,03,10,113,-0,13,14,265,40,17,62,270,43*7C
\c:1494396054596*66\$GPGSV,3,2,12,131,33,220,-0,19,38,253,47,28,76,041,47,07,10,164,-0*44
\c:1494396054596*66\$GPGSV,3,3,12,22,14,086,-0,11,33,053,-0,30,43,186,44,01,47,063,46*79
\c:1494396054621*69\$GPZDA,202201.00,28,05,2017,00,00*6E
\c:1494396054621*69\$GPGGA,202201,4206.5610,N,08750.5757,W,1,08,1.42,196.87,M,-34.268,M,,*73
\c:1494396054621*69\$GPRMC,202201,A,4206.5610,N,08750.5757,W,8.8333,266.817,280517,,*32
\c:1494396054621*69\$GPGSA,A,3,00,00,00,00,00,00,00,00,,,,,2.2,1.4,1.7*31
\c:1494396055594*65\$GPGSV,3,1,12,06,11,199,-0,03,10,113,-0,13,14,265,40,17,62,270,43*7C
\c:1494396055594*65\$GPGSV,3,2,12,131,33,220,41,19,38,253,47,28,76,041,47,07,10,164,-0*5C
\c:1494396055594*65\$GPGSV,3,3,12,22,14,086,-0,11,33,053,-0,30,43,186,43,01,47,063,46*7E
\c:1494396055618*62\$GPZDA,202202.00,28,05,2017,00,00*6D
\c:1494396055618*62\$GPGGA,202202,4206.5611,N,08750.5817,W,1,08,1.42,196.94,M,-34.268,M,,*78
\c:1494396055618*62\$GPRMC,202202,A,4206.5611,N,08750.5817,W,15.6292,271.801,280517,,*02
\c:1494396055618*62\$GPGSA,A,3,00,00,00,00,00,00,00,00,,,,,2.2,1.4,1.7*31
\c:1494396056595*67\$GPGSV,3,1,12,06,11,199,-0,03,10,113,-0,13,14,265,40,17,62,270,43*7C
\c:1494396056596*64\$GPGSV,3,2,12,131,33,220,43,19,38,253,48,28,76,041,47,07,10,164,-0*51
\c:1494396056596*64\$GPGSV,3,3,12,22,14,086,-0,11,33,053,-0,30,43,186,42,01,47,063,46*7F
\c:1494396056621*6B\$GPZDA,202203.00,28,05,2017,00,00*6C
\c:1494396056621*6B\$GPGGA,202203,4206.5612,N,08750.5876,W,1,08,1.42,197.01,M,-34.268,M,,*70
\c:1494396056621*6B\$GPRMC,202203,A,4206.5612,N,08750.5876,W,15.0066,271.203,280517,,*00
\c:1494396056621*6B\$GPGSA,A,3,00,00,00,00,00,00,00,00,,,,,2.2,1.4,1.7*31
\c:1494396057594*67\$GPGSV,3,1,12,06,11,199,-0,03,10,113,-0,13,14,265,41,17,62,270,42*7C
\c:1494396057595*66\$GPGSV,3,2,12,131,33,220,45,19,38,253,48,28,76,041,47,07,10,164,-0*57
\c:1494396057595*66\$GPGSV,3,3,12,22,14,086,-0,11,33,053,-0,30,43,186,42,01,47,063,46*7F
\c:1494396057626*6D\$GPZDA,202204.00,28,05,2017,00,00*6B
\c:1494396057626*6D\$GPGGA,202204,4206.5613,N,08750.5929,W,1,08,1.42,197.10,M,-34.268,M,,*7D
\c:1494396057626*6D\$GPRMC,202204,A,4206.5613,N,08750.5929,W,13.6675,270.102,280517,,*0A
\c:1494396057626*6D\$GPGSA,A,3,00,00,00,00,00,00,00,00,,,,,2.2,1.4,1.7*31
\c:1494396058597*6B\$GPGSV,3,1,12,06,11,199,-0,03,10,113,-0,13,14,265,40,17,62,270,41*7E
\c:1494396058597*6B\$GPGSV,3,2,12,131,33,220,45,19,38,253,48,28,76,041,47,07,10,164,-0*57
\c:1494396058597*6B\$GPGSV,3,3,12,22,14,086,-0,11,33,053,-0,30,43,186,44,01,47,063,45*7A
\c:1494396058622*66\$GPZDA,202205.00,28,05,2017,00,00*6A
\c:1494396058622*66\$GPGGA,202205,4206.5608,N,08750.5974,W,1,06,1.63,197.25,M,-34.268,M,,*75
\c:1494396058623*67\$GPRMC,202205,A,4206.5608,N,08750.5974,W,11.6388,261.592,280517,,*01
\c:1494396058623*67\$GPGSA,A,3,00,00,00,00,00,00,,,,,,,2.5,1.6,1.9*3A
\c:1494396059595*68\$GPGSV,3,1,12,06,11,199,-0,03,10,113,-0,13,14,265,40,17,62,270,40*7F
\c:1494396059595*68\$GPGSV,3,2,12,131,33,220,45,19,38,253,48,28,76,041,46,07,10,164,-0*56
\c:1494396059595*68\$GPGSV,3,3,12,22,14,086,-0,11,33,053,-0,30,43,186,45,01,47,063,46*78
\c:1494396059619*6F\$GPZDA,202206.00,28,05,2017,00,00*69
\c:1494396059620*65\$GPGGA,202206,4206.5598,N,08750.6012,W,1,06,1.63,197.02,M,-34.268,M,,*73
\c:1494396059620*65\$GPRMC,202206,A,4206.5598,N,08750.6012,W,10.6792,248.955,280517,,*00
\c:1494396059620*65\$GPGSA,A,3,00,00,00,00,00,00,,,,,,,2.5,1.6,1.9*3A
\c:1494396060589*6F\$GPGSV,3,1,12,06,11,199,-0,03,10,113,-0,13,14,265,-0,17,62,270,42*64
\c:1494396060589*6F\$GPGSV,3,2,12,131,33,220,47,19,38,253,47,28,76,041,45,07,10,164,-0*58
\c:1494396060590*67\$GPGSV,3,3,12,22,14,086,-0,11,33,053,-0,30,43,186,44,01,47,063,46*79
\c:1494396060615*69\$GPZDA,202207.00,28,05,2017,00,00*68
\c:1494396060616*6A\$GPGGA,202207,4206.5578,N,08750.6044,W,1,06,1.63,197.12,M,-34.268,M,,*7E
\c:1494396060616*6A\$GPRMC,202207,A,4206.5578,N,08750.6044,W,10.4658,227.687,280517,,*00
\c:1494396060616*6A\$GPGSA,A,3,00,00,00,00,00,00,,,,,,,2.5,1.6,1.9*3A
\c:1494396061596*60\$GPGSV,3,1,12,06,11,199,39,03,10,113,-0,13,14,265,-0,17,62,270,43*72
\c:1494396061596*60\$GPGSV,3,2,12,131,33,220,47,19,38,253,48,28,76,045,44,07,10,164,-0*52
\c:1494396061596*60\$GPGSV,3,3,12,22,14,086,-0,11,33,053,-0,30,43,186,45,01,47,063,46*78
\c:1494396061622*6C\$GPZDA,202208.00,28,05,2017,00,00*67
\c:1494396061623*6D\$GPGGA,202208,4206.5551,N,08750.6065,W,1,06,1.63,197.22,M,-34.268,M,,*7A
\c:1494396061623*6D\$GPRMC,202208,A,4206.5551,N,08750.6065,W,11.1271,207.582,280517,,*08
\c:1494396061623*6D\$GPGSA,A,3,00,00,00,00,00,00,,,,,,,2.5,1.6,1.9*3A
\c:1494396062590*65\$GPGSV,3,1,12,06,11,199,38,03,10,113,-0,13,14,265,-0,17,62,270,44*74
\c:1494396062591*64\$GPGSV,3,2,12,131,33,220,46,19,38,253,47,28,76,045,45,07,10,164,-0*5D
\c:1494396062591*64\$GPGSV,3,3,12,22,14,086,-0,11,33,053,36,30,43,186,45,01,47,063,46*60
\c:1494396062652*68\$GPZDA,202209.00,28,05,2017,00,00*66
\c:1494396062653*69\$GPGGA,202209,4206.5516,N,08750.6076,W,1,06,1.63,197.31,M,-34.268,M,,*78
\c:1494396062653*69\$GPRMC,202209,A,4206.5516,N,08750.6076,W,12.7096,190.621,280517,,*01
\c:1494396062653*69\$GPGSA,A,3,00,00,00,00,00,00,,,,,,,2.5,1.6,1.9*3A
\c:1494396063592*66\$GPGSV,3,1,12,06,11,199,37,03,10,113,-0,13,14,265,-0,17,62,270,45*7A
\c:1494396063593*67\$GPGSV,3,2,12,131,33,220,47,19,38,253,48,28,76,045,45,07,10,164,-0*53
\c:1494396063593*67\$GPGSV,3,3,12,22,14,086,-0,11,33,053,36,30,43,186,45,01,47,063,45*63
\c:1494396063629*65\$GPZDA,202210.00,28,05,2017,00,00*6E
\c:1494396063629*65\$GPGGA,202210,4206.5475,N,08750.6082,W,1,08,1.42,198.11,M,-34.268,M,,*7F
\c:1494396063629*65\$GPRMC,202210,A,4206.5475,N,08750.6082,W,14.5571,183.914,280517,,*05
\c:1494396063629*65\$GPGSA,A,3,00,00,00,00,00,00,00,00,,,,,2.2,1.4,1.7*31
\c:1494396064592*61\$GPGSV,3,1,12,06,11,199,-0,03,10,113,-0,13,14,265,-0,17,62,270,46*60
\c:1494396064592*61\$GPGSV,3,2,12,131,33,220,47,19,38,253,48,28,76,045,45,07,10,164,-0*53
\c:1494396064592*61\$GPGSV,3,3,12,22,14,086,-0,11,33,053,-0,30,43,186,45,01,47,063,45*7B
\c:1494396064624*6F\$GPZDA,202211.00,28,05,2017,00,00*6F
\c:1494396064624*6F\$GPGGA,202211,4206.5431,N,08750.6085,W,1,08,1.42,198.20,M,-34.268,M,,*7B
\c:1494396064624*6F\$GPRMC,202211,A,4206.5431,N,08750.6085,W,16.0176,181.055,280517,,*09
\c:1494396064624*6F\$GPGSA,A,3,00,00,00,00,00,00,00,00,,,,,2.2,1.4,1.7*31
\c:1494396065593*61\$GPGSV,3,1,12,06,11,199,-0,03,10,113,-0,13,14,265,-0,17,62,270,47*61
\c:1494396065593*61\$GPGSV,3,2,12,131,33,220,47,19,38,253,48,28,76,045,45,07,10,164,-0*53
\c:1494396065593*61\$GPGSV,3,3,12,22,14,086,-0,11,33,053,-0,30,43,186,45,01,47,063,47*79
\c:1494396065619*60\$GPZDA,202212.00,28,05,2017,00,00*6C
\c:1494396065619*60\$GPGGA,202212,4206.5385,N,08750.6085,W,1,08,1.42,198.22,M,-34.268,M,,*72
\c:1494396065619*60\$GPRMC,202212,A,4206.5385,N,08750.6085,W,16.4105,177.620,280517,,*0F
\c:1494396065619*60\$GPGSA,A,3,00,00,00,00,00,00,00,00,,,,,2.2,1.4,1.7*31
\c:1494396066590*61\$GPGSV,3,1,12,06,11,199,-0,03,10,113,-0,13,14,265,-0,17,62,270,48*6E
\c:1494396066590*61\$GPGSV,3,2,12,131,33,220,47,19,38,253,47,28,76,045,45,07,10,164,-0*5C
\c:1494396066590*61\$GPGSV,3,3,12,22,14,086,-0,11,33,053,43,30,43,186,45,01,47,063,48*6C
\c:1494396066654*6A\$GPZDA,202213.00,28,05,2017,00,00*6D
\c:1494396066654*6A\$GPGGA,202213,4206.5341,N,08750.6077,W,1,08,1.42,197.71,M,-34.268,M,,*7F
\c:1494396066654*6A\$GPRMC,202213,A,4206.5341,N,08750.6077,W,16.4477,170.844,280517,,*00
\c:1494396066654*6A\$GPGSA,A,3,00,00,00,00,00,00,00,00,,,,,2.2,1.4,1.7*31
\c:1494396067592*62\$GPGSV,3,1,12,06,11,199,-0,03,10,113,-0,13,14,265,-0,17,62,270,50*67
\c:1494396067592*62\$GPGSV,3,2,12,131,33,220,48,19,38,253,47,28,76,045,44,07,10,164,-0*52
\c:1494396067592*62\$GPGSV,3,3,12,22,14,086,-0,11,33,053,42,30,43,186,44,01,47,063,48*6C
\c:1494396067650*6F\$GPZDA,202214.00,28,05,2017,00,00*6A
\c:1494396067650*6F\$GPGGA,202214,4206.5298,N,08750.6058,W,1,08,1.42,197.85,M,-34.268,M,,*7B
\c:1494396067650*6F\$GPRMC,202214,A,4206.5298,N,08750.6058,W,16.6120,161.526,280517,,*03
\c:1494396067650*6F\$GPGSA,A,3,00,00,00,00,00,00,00,00,,,,,2.2,1.4,1.7*31
\c:1494396068592*6D\$GPGSV,3,1,12,06,11,199,-0,03,10,113,-0,13,14,265,-0,17,62,270,48*6E
\c:1494396068592*6D\$GPGSV,3,2,12,131,33,220,46,19,38,253,46,28,76,045,44,07,10,164,-0*5D
\c:1494396068592*6D\$GPGSV,3,3,12,22,14,086,-0,11,33,053,43,30,42,185,44,01,47,063,46*61
\c:1494396068634*62\$GPZDA,202215.00,28,05,2017,00,00*6B
\c:1494396068634*62\$GPGGA,202215,4206.5255,N,08750.6040,W,1,07,1.55,198.09,M,-34.268,M,,*70
\c:1494396068634*62\$GPRMC,202215,A,4206.5255,N,08750.6040,W,16.6120,161.526,280517,,*0A
\c:1494396068634*62\$GPGSA,A,3,00,00,00,00,00,00,00,,,,,,2.3,1.6,1.7*32
\c:1494396069589*66\$GPGSV,3,1,12,06,11,199,-0,03,10,113,-0,13,14,265,-0,17,62,270,48*6E
\c:1494396069589*66\$GPGSV,3,2,12,131,33,220,45,19,38,253,45,28,76,045,44,07,10,164,-0*5D
\c:1494396069590*6E\$GPGSV,3,3,12,22,14,086,-0,11,33,053,44,30,42,185,45,01,47,063,45*64
\c:1494396069614*61\$GPZDA,202216.00,28,05,2017,00,00*68
\c:1494396069614*61\$GPGGA,202216,4206.5213,N,08750.6017,W,1,07,1.55,198.24,M,-34.268,M,,*7C
\c:1494396069615*60\$GPRMC,202216,A,4206.5213,N,08750.6017,W,16.6120,161.526,280517,,*09
\c:1494396069615*60\$GPGSA,A,3,00,00,00,00,00,00,00,,,,,,2.3,1.6,1.7*32
\c:1494396070589*6E\$GPGSV,3,1,12,06,11,199,-0,03,10,113,-0,13,14,265,-0,17,62,270,48*6E
\c:1494396070589*6E\$GPGSV,3,2,12,131,33,220,45,19,38,253,44,28,76,045,43,07,10,164,-0*5B
\c:1494396070590*66\$GPGSV,3,3,12,22,14,086,-0,11,33,053,43,30,42,185,45,01,47,063,46*60
\c:1494396070616*6B\$GPZDA,202217.00,28,05,2017,00,00*69
\c:1494396070617*6A\$GPGGA,202217,4206.5175,N,08750.5986,W,1,07,1.55,198.30,M,-34.268,M,,*79
\c:1494396070617*6A\$GPRMC,202217,A,4206.5175,N,08750.5986,W,16.6120,161.526,280517,,*09
\c:1494396070617*6A\$GPGSA,A,3,00,00,00,00,00,00,00,,,,,,2.3,1.6,1.7*32
\c:1494396071591*66\$GPGSV,3,1,12,06,11,199,-0,03,10,113,39,13,14,265,-0,17,62,270,48*79
\c:1494396071592*65\$GPGSV,3,2,12,131,33,220,44,19,38,253,-0,28,76,045,43,07,10,164,-0*47
\c:1494396071592*65\$GPGSV,3,3,12,22,14,086,-0,11,33,053,42,30,42,185,44,01,47,063,46*60
\c:1494396071620*6F\$GPZDA,202218.00,28,05,2017,00,00*66
\c:1494396071620*6F\$GPGGA,202218,4206.5152,N,08750.5937,W,1,07,1.55,197.91,M,-34.268,M,,*7D
\c:1494396071620*6F\$GPRMC,202218,A,4206.5152,N,08750.5937,W,16.6120,161.526,280517,,*09
\c:1494396071620*6F\$GPGSA,A,3,00,00,00,00,00,00,00,,,,,,2.3,1.6,1.7*32
\c:1494396072589*6C\$GPGSV,3,1,12,06,11,199,-0,03,10,113,39,13,14,265,-0,17,62,270,48*79
\c:1494396072590*64\$GPGSV,3,2,12,131,33,220,43,19,38,253,-0,28,76,045,43,07,10,164,-0*40
\c:1494396072590*64\$GPGSV,3,3,12,22,14,086,-0,11,33,053,42,30,42,185,46,01,47,063,46*62
\c:1494396072617*68\$GPZDA,202219.00,28,05,2017,00,00*67
\c:1494396072617*68\$GPGGA,202219,4206.5202,N,08750.5912,W,1,07,1.55,198.19,M,-34.268,M,,*72
\c:1494396072617*68\$GPRMC,202219,A,4206.5202,N,08750.5912,W,16.6120,161.526,280517,,*09
\c:1494396072617*68\$GPGSA,A,3,00,00,00,00,00,00,00,,,,,,2.3,1.6,1.7*32
\c:1494396073589*6D\$GPGSV,3,1,12,06,11,199,-0,03,10,113,38,13,14,265,-0,17,62,270,48*78
\c:1494396073589*6D\$GPGSV,3,2,12,131,33,220,-0,19,38,253,-0,28,76,045,42,07,10,164,-0*5B
\c:1494396073589*6D\$GPGSV,3,3,12,22,14,086,-0,11,33,053,41,30,42,185,46,01,47,063,47*60
\c:1494396073618*66\$GPZDA,202220.00,28,05,2017,00,00*6D
\c:1494396073618*66\$GPGGA,202220,4206.5172,N,08750.5856,W,1,07,1.55,197.90,M,-34.268,M,,*73
\c:1494396073618*66\$GPRMC,202220,A,4206.5172,N,08750.5856,W,16.6120,161.526,280517,,*06
\c:1494396073618*66\$GPGSA,A,3,00,00,00,00,00,00,00,,,,,,2.3,1.6,1.7*32
\c:1494396074591*63\$GPGSV,3,1,12,06,11,199,-0,03,10,113,38,13,14,265,-0,17,62,270,49*79
\c:1494396074591*63\$GPGSV,3,2,12,131,33,220,43,19,38,253,-0,28,76,045,42,07,10,164,-0*41
\c:1494396074591*63\$GPGSV,3,3,12,22,14,086,38,11,33,053,42,30,42,185,47,01,47,063,47*74
\c:1494396074632*69\$GPZDA,202221.00,28,05,2017,00,00*6C
\c:1494396074632*69\$GPGGA,202221,4206.5139,N,08750.5802,W,1,07,1.55,198.29,M,-34.268,M,,*71
\c:1494396074632*69\$GPRMC,202221,A,4206.5139,N,08750.5802,W,17.8525,128.251,280517,,*0D
\c:1494396074632*69\$GPGSA,A,3,00,00,00,00,00,00,00,,,,,,2.3,1.6,1.7*32
\c:1494396075590*63\$GPGSV,3,1,12,06,11,199,-0,03,10,113,-0,13,14,265,-0,17,62,270,49*6F
\c:1494396075590*63\$GPGSV,3,2,12,131,33,220,42,19,38,253,-0,28,76,045,42,07,10,164,-0*40
\c:1494396075590*63\$GPGSV,3,3,12,22,14,086,37,11,33,053,43,30,42,185,48,01,47,063,47*75
\c:1494396075616*6E\$GPZDA,202222.00,28,05,2017,00,00*6F
\c:1494396075616*6E\$GPGGA,202222,4206.5105,N,08750.5751,W,1,08,1.42,198.44,M,-34.268,M,,*76
\c:1494396075616*6E\$GPRMC,202222,A,4206.5105,N,08750.5751,W,17.9130,131.691,280517,,*09
\c:1494396075616*6E\$GPGSA,A,3,00,00,00,00,00,00,00,00,,,,,2.2,1.4,1.7*31
\c:1494396076590*60\$GPGSV,3,1,12,06,11,199,-0,03,10,113,-0,13,14,265,-0,17,62,270,49*6F
\c:1494396076590*60\$GPGSV,3,2,12,131,33,220,42,19,38,253,41,28,76,045,42,07,10,164,-0*58
\c:1494396076590*60\$GPGSV,3,3,12,22,14,086,36,11,33,053,43,30,42,185,47,01,47,063,46*7A
\c:1494396076631*68\$GPZDA,202223.00,28,05,2017,00,00*6E
\c:1494396076631*68\$GPGGA,202223,4206.5070,N,08750.5700,W,1,08,1.42,198.55,M,-34.268,M,,*70
\c:1494396076632*6B\$GPRMC,202223,A,4206.5070,N,08750.5700,W,17.9130,131.691,280517,,*0F
\c:1494396076632*6B\$GPGSA,A,3,00,00,00,00,00,00,00,00,,,,,2.2,1.4,1.7*31
\c:1494396077590*61\$GPGSV,3,1,12,06,11,199,-0,03,10,113,-0,13,14,265,-0,17,62,270,48*6E
\c:1494396077590*61\$GPGSV,3,2,12,131,33,220,-0,19,38,253,41,28,76,045,41,07,10,164,-0*40
\c:1494396077590*61\$GPGSV,3,3,12,22,14,086,36,11,33,053,44,30,42,185,46,01,47,063,46*7C
\c:1494396077620*69\$GPZDA,202224.00,28,05,2017,00,00*69
\c:1494396077620*69\$GPGGA,202224,4206.5029,N,08750.5652,W,1,08,1.42,198.50,M,-34.268,M,,*78
\c:1494396077620*69\$GPRMC,202224,A,4206.5029,N,08750.5652,W,17.9130,131.691,280517,,*02
\c:1494396077621*68\$GPGSA,A,3,00,00,00,00,00,00,00,00,,,,,2.2,1.4,1.7*31
\c:1494396078590*6E\$GPGSV,3,1,12,06,11,199,-0,03,10,113,-0,13,14,265,-0,17,62,270,47*61
\c:1494396078590*6E\$GPGSV,3,2,12,131,33,220,46,19,38,253,40,28,76,045,41,07,10,164,-0*5E
\c:1494396078590*6E\$GPGSV,3,3,12,22,14,086,-0,11,33,053,43,30,42,185,46,01,47,063,46*63
\c:1494396078620*66\$GPZDA,202225.00,28,05,2017,00,00*68
\c:1494396078621*67\$GPGGA,202225,4206.4990,N,08750.5612,W,1,08,1.42,198.93,M,-34.268,M,,*78
\c:1494396078621*67\$GPRMC,202225,A,4206.4990,N,08750.5612,W,17.9130,131.691,280517,,*0D
\c:1494396078621*67\$GPGSA,A,3,00,00,00,00,00,00,00,00,,,,,2.2,1.4,1.7*31
\c:1494396079591*6E\$GPGSV,3,1,12,06,11,199,-0,03,10,113,-0,13,14,265,-0,17,62,270,47*61
\c:1494396079591*6E\$GPGSV,3,2,12,131,33,220,46,19,38,253,39,28,76,045,41,07,10,164,-0*50
\c:1494396079591*6E\$GPGSV,3,3,12,22,14,086,-0,11,33,053,43,30,42,185,45,01,47,063,45*63
\c:1494396079616*62\$GPZDA,202226.00,28,05,2017,00,00*6B
\c:1494396079616*62\$GPGGA,202226,4206.4947,N,08750.5574,W,1,08,1.42,199.96,M,-34.268,M,,*76
\c:1494396079617*63\$GPRMC,202226,A,4206.4947,N,08750.5574,W,17.9130,131.691,280517,,*07
\c:1494396079617*63\$GPGSA,A,3,00,00,00,00,00,00,00,00,,,,,2.2,1.4,1.7*31
\c:1494396080591*68\$GPGSV,3,1,12,06,11,199,-0,03,10,113,-0,13,14,265,-0,17,62,270,46*60
\c:1494396080591*68\$GPGSV,3,2,12,131,33,220,45,19,38,253,39,28,76,045,41,07,10,164,-0*53
\c:1494396080591*68\$GPGSV,3,3,12,22,14,086,-0,11,33,053,42,30,42,185,45,01,47,062,47*61
\c:1494396080618*6A\$GPZDA,202227.00,28,05,2017,00,00*6A
\c:1494396080619*6B\$GPGGA,202227,4206.4911,N,08750.5543,W,1,08,1.42,200.53,M,-34.268,M,,*7A
\c:1494396080619*6B\$GPRMC,202227,A,4206.4911,N,08750.5543,W,17.9130,131.691,280517,,*01
\c:1494396080619*6B\$GPGSA,A,3,00,00,00,00,00,00,00,00,,,,,2.2,1.4,1.7*31
\c:1494396081591*69\$GPGSV,3,1,12,06,11,199,-0,03,10,113,-0,13,14,265,-0,17,62,270,47*61
\c:1494396081591*69\$GPGSV,3,2,12,131,33,220,44,19,38,253,-0,28,76,045,42,07,10,164,-0*46
\c:1494396081591*69\$GPGSV,3,3,12,22,14,086,-0,11,33,053,44,30,42,185,45,01,47,062,47*67
\c:1494396081616*65\$GPZDA,202228.00,28,05,2017,00,00*65
\c:1494396081617*64\$GPGGA,202228,4206.4878,N,08750.5515,W,1,08,1.42,200.73,M,-34.268,M,,*7A
\c:1494396081617*64\$GPRMC,202228,A,4206.4878,N,08750.5515,W,17.9130,131.691,280517,,*03
\c:1494396081617*64\$GPGSA,A,3,00,00,00,00,00,00,00,00,,,,,2.2,1.4,1.7*31
\c:1494396082589*63\$GPGSV,3,1,12,06,11,199,-0,03,10,113,-0,13,14,265,-0,17,62,270,47*61
\c:1494396082590*6B\$GPGSV,3,2,12,131,33,220,43,19,38,253,-0,28,76,045,40,07,10,164,-0*43
\c:1494396082590*6B\$GPGSV,3,3,12,22,14,086,-0,11,33,053,44,30,42,185,47,01,47,062,47*65
\c:1494396082615*65\$GPZDA,202229.00,28,05,2017,00,00*64
\c:1494396082615*65\$GPGGA,202229,4206.4848,N,08750.5490,W,1,08,1.42,200.83,M,-34.268,M,,*7B
\c:1494396082615*65\$GPRMC,202229,A,4206.4848,N,08750.5490,W,17.9130,131.691,280517,,*0D
\c:1494396082615*65\$GPGSA,A,3,00,00,00,00,00,00,00,00,,,,,2.2,1.4,1.7*31
\c:1494396083590*6A\$GPGSV,3,1,12,06,11,199,-0,03,10,113,-0,13,14,265,-0,17,62,270,47*61
\c:1494396083591*6B\$GPGSV,3,2,12,131,33,220,-0,19,38,253,-0,28,76,045,40,07,10,164,-0*59
\c:1494396083591*6B\$GPGSV,3,3,12,22,14,086,-0,11,33,053,45,30,42,185,47,01,47,062,46*65
\c:1494396083615*64\$GPZDA,202230.00,28,05,2017,00,00*6C
\c:1494396083615*64\$GPGGA,202230,4206.4821,N,08750.5465,W,1,08,1.42,201.12,M,-34.268,M,,*7F
\c:1494396083615*64\$GPRMC,202230,A,4206.4821,N,08750.5465,W,17.9130,131.691,280517,,*00
\c:1494396083615*64\$GPGSA,A,3,00,00,00,00,00,00,00,00,,,,,2.2,1.4,1.7*31
\c:1494396084590*6D\$GPGSV,3,1,12,06,11,199,-0,03,10,113,-0,13,14,265,-0,17,62,270,47*61
\c:1494396084590*6D\$GPGSV,3,2,12,131,33,220,-0,19,38,253,-0,28,76,045,41,07,10,164,-0*58
\c:1494396084591*6C\$GPGSV,3,3,12,22,14,086,-0,11,33,053,45,30,42,185,47,01,47,062,47*64
\c:1494396084613*65\$GPZDA,202231.00,28,05,2017,00,00*6D
\c:1494396084613*65\$GPGGA,202231,4206.4821,N,08750.5432,W,1,08,1.42,201.19,M,-34.268,M,,*77
\c:1494396084613*65\$GPRMC,202231,A,4206.4821,N,08750.5432,W,9.0260,91.155,280517,,*07
\c:1494396084613*65\$GPGSA,A,3,00,00,00,00,00,00,00,00,,,,,2.2,1.4,1.7*31
\c:1494396085590*6C\$GPGSV,3,1,12,06,11,199,-0,03,10,113,-0,13,14,265,-0,17,62,270,46*60
\c:1494396085590*6C\$GPGSV,3,2,12,131,33,220,-0,19,38,253,-0,28,76,045,43,07,10,164,-0*5A
\c:1494396085590*6C\$GPGSV,3,3,12,22,14,086,-0,11,33,053,45,30,42,185,46,01,47,062,46*64
\c:1494396085616*61\$GPZDA,202232.00,28,05,2017,00,00*6E
\c:1494396085616*61\$GPGGA,202232,4206.4830,N,08750.5396,W,1,07,1.55,201.07,M,-34.268,M,,*7B
\c:1494396085616*61\$GPRMC,202232,A,4206.4830,N,08750.5396,W,10.5278,70.687,280517,,*3E
\c:1494396085616*61\$GPGSA,A,3,00,00,00,00,00,00,00,,,,,,2.3,1.6,1.7*32
\c:1494396086590*6F\$GPGSV,3,1,12,06,11,199,-0,03,10,113,-0,13,14,265,-0,17,62,270,47*61
\c:1494396086590*6F\$GPGSV,3,2,12,131,33,220,-0,19,38,253,-0,28,76,045,44,07,10,164,-0*5D
\c:1494396086590*6F\$GPGSV,3,3,12,22,14,086,-0,11,33,053,46,30,42,185,45,01,47,062,46*64
\c:1494396086619*6D\$GPZDA,202233.00,28,05,2017,00,00*6F
\c:1494396086619*6D\$GPGGA,202233,4206.4840,N,08750.5360,W,1,07,1.55,201.03,M,-34.268,M,,*70
\c:1494396086620*67\$GPRMC,202233,A,4206.4840,N,08750.5360,W,10.5278,70.687,280517,,*31
\c:1494396086620*67\$GPGSA,A,3,00,00,00,00,00,00,00,,,,,,2.3,1.6,1.7*32
\c:1494396087590*6E\$GPGSV,3,1,12,06,11,199,-0,03,10,113,-0,13,14,265,-0,17,62,270,48*6E
\c:1494396087590*6E\$GPGSV,3,2,12,131,33,220,-0,19,38,253,45,28,76,045,44,07,10,164,-0*41
\c:1494396087590*6E\$GPGSV,3,3,12,22,14,086,-0,11,33,053,46,30,42,185,43,01,47,062,46*62
\c:1494396087619*6C\$GPZDA,202234.00,28,05,2017,00,00*68
\c:1494396087620*66\$GPGGA,202234,4206.4866,N,08750.5327,W,1,07,1.55,200.93,M,-34.268,M,,*78
\c:1494396087620*66\$GPRMC,202234,A,4206.4866,N,08750.5327,W,10.5278,70.687,280517,,*31
\c:1494396087620*66\$GPGSA,A,3,00,00,00,00,00,00,00,,,,,,2.3,1.6,1.7*32
\c:1494396088589*69\$GPGSV,3,1,12,06,11,199,-0,03,10,113,-0,13,14,265,-0,17,62,270,48*6E
\c:1494396088589*69\$GPGSV,3,2,12,131,33,220,-0,19,38,253,44,28,76,045,45,07,10,164,-0*41
\c:1494396088589*69\$GPGSV,3,3,12,22,14,086,-0,11,33,053,45,30,42,185,42,01,47,062,46*60
\c:1494396088615*6F\$GPZDA,202235.00,28,05,2017,00,00*69
\c:1494396088615*6F\$GPGGA,202235,4206.4887,N,08750.5292,W,1,07,1.55,200.79,M,-34.268,M,,*7D
\c:1494396088615*6F\$GPRMC,202235,A,4206.4887,N,08750.5292,W,10.5278,70.687,280517,,*30
\c:1494396088616*6C\$GPGSA,A,3,00,00,00,00,00,00,00,,,,,,2.3,1.6,1.7*32
\c:1494396089590*60\$GPGSV,3,1,12,06,11,199,-0,03,10,113,-0,13,14,265,-0,17,62,270,48*6E
\c:1494396089590*60\$GPGSV,3,2,12,131,33,220,-0,19,38,253,44,28,76,045,45,07,10,164,-0*41
\c:1494396089590*60\$GPGSV,3,3,12,22,14,086,-0,11,33,053,44,30,42,185,41,01,47,062,45*61
\c:1494396089604*6E\$GPZDA,202236.00,28,05,2017,00,00*6A
\c:1494396089604*6E\$GPGGA,202236,4206.4909,N,08750.5256,W,1,06,1.63,200.78,M,-34.268,M,,*74
\c:1494396089605*6F\$GPRMC,202236,A,4206.4909,N,08750.5256,W,10.5278,70.687,280517,,*3C
\c:1494396089605*6F\$GPGSA,A,3,00,00,00,00,00,00,,,,,,,2.5,1.6,1.9*3A
\c:1494396090590*68\$GPGSV,3,1,12,06,11,199,-0,03,10,113,-0,13,14,265,-0,17,62,270,47*61
\c:1494396090590*68\$GPGSV,3,2,12,131,33,220,-0,19,38,253,43,28,76,045,45,07,10,164,-0*46
\c:1494396090591*69\$GPGSV,3,3,12,22,14,086,34,11,33,053,45,30,42,185,41,01,47,062,46*79
\c:1494396090625*65\$GPZDA,202237.00,28,05,2017,00,00*6B
\c:1494396090626*66\$GPGGA,202237,4206.4932,N,08750.5221,W,1,06,1.63,200.80,M,-34.268,M,,*7A
\c:1494396090626*66\$GPRMC,202237,A,4206.4932,N,08750.5221,W,10.5278,70.687,280517,,*35
\c:1494396090626*66\$GPGSA,A,3,00,00,00,00,00,00,,,,,,,2.5,1.6,1.9*3A
\c:1494396091591*68\$GPGSV,3,1,12,06,11,199,-0,03,10,113,-0,13,14,265,-0,17,62,270,47*61
\c:1494396091591*68\$GPGSV,3,2,12,131,33,220,-0,19,38,253,42,28,76,045,45,07,10,164,-0*47
\c:1494396091591*68\$GPGSV,3,3,12,22,14,086,33,11,33,053,46,30,42,185,40,01,47,062,46*7C
\c:1494396091622*63\$GPZDA,202238.00,28,05,2017,00,00*64
\c:1494396091623*62\$GPGGA,202238,4206.4957,N,08750.5189,W,1,07,1.55,200.62,M,-34.268,M,,*7F
\c:1494396091623*62\$GPRMC,202238,A,4206.4957,N,08750.5189,W,10.5278,70.687,280517,,*38
\c:1494396091623*62\$GPGSA,A,3,00,00,00,00,00,00,00,,,,,,2.3,1.6,1.7*32
\c:1494396092590*6A\$GPGSV,3,1,12,06,11,199,-0,03,10,113,-0,13,14,265,-0,17,62,270,48*6E
\c:1494396092590*6A\$GPGSV,3,2,12,131,33,220,-0,19,38,253,42,28,76,045,46,07,10,164,-0*44
\c:1494396092590*6A\$GPGSV,3,3,12,22,14,086,38,11,33,053,46,30,42,185,39,01,47,062,47*78
\c:1494396092621*63\$GPZDA,202239.00,28,05,2017,00,00*65
\c:1494396092621*63\$GPGGA,202239,4206.4983,N,08750.5156,W,1,07,1.55,200.39,M,-34.268,M,,*7B
\c:1494396092621*63\$GPRMC,202239,A,4206.4983,N,08750.5156,W,12.7158,43.648,280517,,*30
\c:1494396092621*63\$GPGSA,A,3,00,00,00,00,00,00,00,,,,,,2.3,1.6,1.7*32
\c:1494396093590*6B\$GPGSV,3,1,12,06,11,199,-0,03,10,113,-0,13,14,265,-0,17,62,270,49*6F
\c:1494396093590*6B\$GPGSV,3,2,12,131,33,220,-0,19,38,253,43,28,76,045,46,07,10,164,-0*45
\c:1494396093590*6B\$GPGSV,3,3,12,22,14,086,39,11,33,053,46,30,42,185,38,01,47,062,47*78
\c:1494396093616*66\$GPZDA,202240.00,28,05,2017,00,00*6B
\c:1494396093616*66\$GPGGA,202240,4206.5011,N,08750.5124,W,1,07,1.55,200.09,M,-34.268,M,,*70
\c:1494396093616*66\$GPRMC,202240,A,4206.5011,N,08750.5124,W,12.8171,43.867,280517,,*3F
\c:1494396093616*66\$GPGSA,A,3,00,00,00,00,00,00,00,,,,,,2.3,1.6,1.7*32
\c:1494396094590*6C\$GPGSV,3,1,12,06,11,199,-0,03,10,113,-0,13,14,265,-0,17,62,270,48*6E
\c:1494396094590*6C\$GPGSV,3,2,12,131,33,220,-0,19,38,253,43,28,76,045,46,07,10,164,-0*45
\c:1494396094590*6C\$GPGSV,3,3,12,22,14,086,39,11,33,053,46,30,42,185,38,01,47,062,47*78
\c:1494396094613*64\$GPZDA,202241.00,28,05,2017,00,00*6A
\c:1494396094613*64\$GPGGA,202241,4206.5037,N,08750.5092,W,1,07,1.55,199.85,M,-34.268,M,,*7E
\c:1494396094613*64\$GPRMC,202241,A,4206.5037,N,08750.5092,W,12.7459,43.967,280517,,*37
\c:1494396094613*64\$GPGSA,A,3,00,00,00,00,00,00,00,,,,,,2.3,1.6,1.7*32
\c:1494396095590*6D\$GPGSV,3,1,12,06,11,199,-0,03,10,113,-0,13,14,265,-0,17,62,270,49*6F
\c:1494396095590*6D\$GPGSV,3,2,12,131,33,220,-0,19,38,253,42,28,76,045,46,07,10,164,-0*44
\c:1494396095590*6D\$GPGSV,3,3,12,22,14,086,38,11,33,053,47,30,42,185,39,01,47,062,47*79
\c:1494396095617*61\$GPZDA,202242.00,28,05,2017,00,00*69
\c:1494396095617*61\$GPGGA,202242,4206.5063,N,08750.5059,W,1,07,1.55,199.58,M,-34.268,M,,*7B
\c:1494396095617*61\$GPRMC,202242,A,4206.5063,N,08750.5059,W,12.9182,42.659,280517,,*3C
\c:1494396095617*61\$GPGSA,A,3,00,00,00,00,00,00,00,,,,,,2.3,1.6,1.7*32
\c:1494396096590*6E\$GPGSV,3,1,12,06,11,199,-0,03,10,113,-0,13,14,265,-0,17,62,270,49*6F
\c:1494396096590*6E\$GPGSV,3,2,12,131,33,220,-0,19,38,253,41,28,76,045,47,07,10,164,-0*46
\c:1494396096590*6E\$GPGSV,3,3,12,22,14,086,37,11,33,053,47,30,42,185,40,01,47,062,47*78
\c:1494396096614*61\$GPZDA,202243.00,28,05,2017,00,00*68
\c:1494396096614*61\$GPGGA,202243,4206.5089,N,08750.5027,W,1,07,1.55,199.27,M,-34.268,M,,*7F
\c:1494396096614*61\$GPRMC,202243,A,4206.5089,N,08750.5027,W,12.8659,42.601,280517,,*3D
\c:1494396096614*61\$GPGSA,A,3,00,00,00,00,00,00,00,,,,,,2.3,1.6,1.7*32
\c:1494396097590*6F\$GPGSV,3,1,12,06,11,199,-0,03,10,113,-0,13,14,265,-0,17,62,270,49*6F
\c:1494396097590*6F\$GPGSV,3,2,12,131,33,220,-0,19,38,253,40,28,76,045,46,07,10,164,-0*46
\c:1494396097591*6E\$GPGSV,3,3,12,22,14,086,-0,11,33,053,47,30,42,185,40,01,47,062,47*61
\c:1494396097612*66\$GPZDA,202244.00,28,05,2017,00,00*6F
\c:1494396097612*66\$GPGGA,202244,4206.5115,N,08750.4994,W,1,07,1.55,199.01,M,-34.268,M,,*78
\c:1494396097613*67\$GPRMC,202244,A,4206.5115,N,08750.4994,W,12.7629,43.820,280517,,*3A
\c:1494396097613*67\$GPGSA,A,3,00,00,00,00,00,00,00,,,,,,2.3,1.6,1.7*32
\c:1494396098590*60\$GPGSV,3,1,12,06,12,199,-0,03,10,113,-0,13,14,265,-0,17,62,270,49*6C
\c:1494396098590*60\$GPGSV,3,2,12,131,33,220,-0,19,38,253,41,28,76,045,46,07,10,164,-0*47
\c:1494396098590*60\$GPGSV,3,3,12,22,14,086,42,11,33,053,46,30,42,185,41,01,47,062,47*7A
\c:1494396098643*6D\$GPZDA,202245.00,28,05,2017,00,00*6E
\c:1494396098643*6D\$GPGGA,202245,4206.5139,N,08750.4961,W,1,07,1.54,198.84,M,-34.268,M,,*70
\c:1494396098643*6D\$GPRMC,202245,A,4206.5139,N,08750.4961,W,12.7635,45.379,280517,,*33
\c:1494396098643*6D\$GPGSA,A,3,00,00,00,00,00,00,00,,,,,,2.3,1.5,1.7*31
\c:1494396099591*60\$GPGSV,3,1,12,06,12,199,-0,03,10,113,-0,13,14,265,-0,17,62,270,49*6C
\c:1494396099591*60\$GPGSV,3,2,12,131,33,220,-0,19,38,253,42,28,76,045,47,07,10,164,-0*45
\c:1494396099591*60\$GPGSV,3,3,12,22,14,086,42,11,33,053,46,30,42,185,41,01,47,062,47*7A
\c:1494396099618*62\$GPZDA,202246.00,28,05,2017,00,00*6D
\c:1494396099619*63\$GPGGA,202246,4206.5163,N,08750.4926,W,1,07,1.54,198.78,M,-34.268,M,,*7C
\c:1494396099619*63\$GPRMC,202246,A,4206.5163,N,08750.4926,W,12.6695,48.475,280517,,*31
\c:1494396099619*63\$GPGSA,A,3,00,00,00,00,00,00,00,,,,,,2.3,1.5,1.7*31
\c:1494396100590*60\$GPGSV,3,1,12,06,12,199,-0,03,10,113,-0,13,14,265,-0,17,62,270,49*6C
\c:1494396100590*60\$GPGSV,3,2,12,131,33,220,-0,19,38,253,42,28,76,045,47,07,10,164,-0*45
\c:1494396100590*60\$GPGSV,3,3,12,22,14,086,41,11,33,053,46,30,42,185,41,01,47,062,47*79
\c:1494396100614*6F\$GPZDA,202247.00,28,05,2017,00,00*6C
\c:1494396100614*6F\$GPGGA,202247,4206.5185,N,08750.4891,W,1,07,1.54,198.62,M,-34.268,M,,*73
\c:1494396100614*6F\$GPRMC,202247,A,4206.5185,N,08750.4891,W,12.4545,50.819,280517,,*36
\c:1494396100615*6E\$GPGSA,A,3,00,00,00,00,00,00,00,,,,,,2.3,1.5,1.7*31
\c:1494396101591*60\$GPGSV,3,1,12,06,12,199,-0,03,10,113,-0,13,14,265,-0,17,62,270,49*6C
\c:1494396101591*60\$GPGSV,3,2,12,131,33,220,-0,19,38,253,43,28,76,045,47,07,10,164,-0*44
\c:1494396101591*60\$GPGSV,3,3,12,22,14,086,-0,11,33,053,46,30,42,185,41,01,47,062,48*6E
\c:1494396101610*6A\$GPZDA,202248.00,28,05,2017,00,00*63
\c:1494396101610*6A\$GPGGA,202248,4206.5206,N,08750.4861,W,1,07,1.54,198.51,M,-34.268,M,,*7B
\c:1494396101610*6A\$GPRMC,202248,A,4206.5206,N,08750.4861,W,11.0820,47.803,280517,,*3A
\c:1494396101610*6A\$GPGSA,A,3,00,00,00,00,00,00,00,,,,,,2.3,1.5,1.7*31
\c:1494396102590*62\$GPGSV,3,1,12,06,12,199,-0,03,10,113,-0,13,14,265,-0,17,62,270,49*6C
\c:1494396102590*62\$GPGSV,3,2,12,131,33,220,-0,19,38,253,43,28,76,045,47,07,10,164,-0*44
\c:1494396102590*62\$GPGSV,3,3,12,22,14,086,-0,11,33,053,46,30,42,185,41,01,47,062,48*6E
\c:1494396102610*69\$GPZDA,202249.00,28,05,2017,00,00*62
\c:1494396102610*69\$GPGGA,202249,4206.5228,N,08750.4839,W,1,07,1.54,198.36,M,-34.268,M,,*7A
\c:1494396102610*69\$GPRMC,202249,A,4206.5228,N,08750.4839,W,10.0358,36.495,280517,,*3A
\c:1494396102610*69\$GPGSA,A,3,00,00,00,00,00,00,00,,,,,,2.3,1.5,1.7*31
\c:1494396103590*63\$GPGSV,3,1,12,06,12,199,-0,03,10,113,-0,13,14,265,-0,17,62,270,49*6C
\c:1494396103591*62\$GPGSV,3,2,12,131,33,220,-0,19,38,253,45,28,76,045,46,07,10,164,-0*43
\c:1494396103591*62\$GPGSV,3,3,12,22,14,086,42,11,33,053,47,30,42,185,41,01,47,062,49*75
\c:1494396103617*6F\$GPZDA,202250.00,28,05,2017,00,00*6A
\c:1494396103617*6F\$GPGGA,202250,4206.5255,N,08750.4829,W,1,07,1.54,198.01,M,-34.268,M,,*7D
\c:1494396103617*6F\$GPRMC,202250,A,4206.5255,N,08750.4829,W,9.8412,16.352,280517,,*0E
\c:1494396103617*6F\$GPGSA,A,3,00,00,00,00,00,00,00,,,,,,2.3,1.5,1.7*31
\c:1494396104590*64\$GPGSV,3,1,12,06,12,199,-0,03,10,113,-0,13,14,265,-0,17,62,270,48*6D
\c:1494396104590*64\$GPGSV,3,2,12,131,33,220,-0,19,38,253,44,28,76,045,45,07,10,164,-0*41
\c:1494396104590*64\$GPGSV,3,3,12,22,14,086,41,11,33,053,46,30,42,185,41,01,47,062,49*77
\c:1494396104619*66\$GPZDA,202251.00,28,05,2017,00,00*6B
\c:1494396104619*66\$GPGGA,202251,4206.5283,N,08750.4833,W,1,07,1.54,197.68,M,-34.268,M,,*7C
\c:1494396104619*66\$GPRMC,202251,A,4206.5283,N,08750.4833,W,9.7418,355.921,280517,,*30
\c:1494396104619*66\$GPGSA,A,3,00,00,00,00,00,00,00,,,,,,2.3,1.5,1.7*31
\c:1494396105590*65\$GPGSV,3,1,12,06,12,199,-0,03,10,113,-0,13,14,265,-0,17,62,270,47*62
\c:1494396105590*65\$GPGSV,3,2,12,131,33,220,43,19,38,253,45,28,76,045,45,07,10,164,-0*5A
\c:1494396105590*65\$GPGSV,3,3,12,22,14,086,-0,11,33,053,46,30,42,185,40,01,47,062,49*6E
\c:1494396105612*6C\$GPZDA,202252.00,28,05,2017,00,00*68
\c:1494396105612*6C\$GPGGA,202252,4206.5309,N,08750.4848,W,1,07,1.54,197.31,M,-34.268,M,,*7C
\c:1494396105612*6C\$GPRMC,202252,A,4206.5309,N,08750.4848,W,9.8227,338.073,280517,,*3C
\c:1494396105612*6C\$GPGSA,A,3,00,00,00,00,00,00,00,,,,,,2.3,1.5,1.7*31
\c:1494396106591*67\$GPGSV,3,1,12,06,12,199,-0,03,10,113,-0,13,14,265,-0,17,62,270,47*62
\c:1494396106591*67\$GPGSV,3,2,12,131,33,220,43,19,38,253,45,28,76,045,46,07,10,164,-0*59
\c:1494396106591*67\$GPGSV,3,3,12,22,14,086,-0,11,33,053,45,30,42,185,41,01,47,062,48*6D
\c:1494396106616*6B\$GPZDA,202253.00,28,05,2017,00,00*69
\c:1494396106616*6B\$GPGGA,202253,4206.5335,N,08750.4863,W,1,07,1.54,197.00,M,-34.268,M,,*79
\c:1494396106616*6B\$GPRMC,202253,A,4206.5335,N,08750.4863,W,9.8227,338.073,280517,,*3B
\c:1494396106616*6B\$GPGSA,A,3,00,00,00,00,00,00,00,,,,,,2.3,1.5,1.7*31
\c:1494396107591*66\$GPGSV,3,1,12,06,12,199,-0,03,10,113,-0,13,14,265,-0,17,62,270,47*62
\c:1494396107591*66\$GPGSV,3,2,12,131,33,220,43,19,38,253,45,28,76,045,46,07,10,164,-0*59
\c:1494396107591*66\$GPGSV,3,3,12,22,14,086,-0,11,33,053,45,30,42,185,42,01,47,062,48*6E
\c:1494396107619*65\$GPZDA,202254.00,28,05,2017,00,00*6E
\c:1494396107620*6F\$GPGGA,202254,4206.5361,N,08750.4883,W,1,07,1.54,196.51,M,-34.268,M,,*74
\c:1494396107620*6F\$GPRMC,202254,A,4206.5361,N,08750.4883,W,10.1377,329.193,280517,,*09
\c:1494396107620*6F\$GPGSA,A,3,00,00,00,00,00,00,00,,,,,,2.3,1.5,1.7*31
\c:1494396108590*68\$GPGSV,3,1,12,06,12,199,-0,03,10,113,-0,13,14,265,-0,17,62,270,47*62
\c:1494396108590*68\$GPGSV,3,2,12,131,33,220,43,19,38,253,45,28,76,045,46,07,10,164,-0*59
\c:1494396108590*68\$GPGSV,3,3,12,22,14,086,-0,11,33,053,45,30,42,185,42,01,47,062,46*60
\c:1494396108613*60\$GPZDA,202255.00,28,05,2017,00,00*6F
\c:1494396108613*60\$GPGGA,202255,4206.5388,N,08750.4903,W,1,07,1.54,196.12,M,-34.268,M,,*7C
\c:1494396108614*67\$GPRMC,202255,A,4206.5388,N,08750.4903,W,10.9447,330.355,280517,,*0A
\c:1494396108614*67\$GPGSA,A,3,00,00,00,00,00,00,00,,,,,,2.3,1.5,1.7*31
\c:1494396109590*69\$GPGSV,3,1,12,06,12,199,-0,03,10,113,-0,13,14,265,-0,17,62,270,46*63
\c:1494396109591*68\$GPGSV,3,2,12,131,33,220,43,19,38,253,45,28,76,045,47,07,10,164,-0*58
\c:1494396109591*68\$GPGSV,3,3,12,22,14,086,-0,11,33,053,44,30,42,185,43,01,47,062,46*60
\c:1494396109612*60\$GPZDA,202256.00,28,05,2017,00,00*6C
\c:1494396109613*61\$GPGGA,202256,4206.5417,N,08750.4923,W,1,07,1.54,195.75,M,-34.268,M,,*7E
\c:1494396109613*61\$GPRMC,202256,A,4206.5417,N,08750.4923,W,11.3286,331.828,280517,,*0A
\c:1494396109613*61\$GPGSA,A,3,00,00,00,00,00,00,00,,,,,,2.3,1.5,1.7*31
\c:1494396110590*61\$GPGSV,3,1,12,06,12,199,-0,03,10,113,-0,13,14,265,-0,17,62,270,46*63
\c:1494396110591*60\$GPGSV,3,2,12,131,33,220,42,19,38,253,46,28,76,045,47,07,10,164,-0*5A
\c:1494396110591*60\$GPGSV,3,3,12,22,14,086,-0,11,33,053,44,30,42,185,43,01,47,062,45*63
\c:1494396110617*6D\$GPZDA,202257.00,28,05,2017,00,00*6D
\c:1494396110617*6D\$GPGGA,202257,4206.5446,N,08750.4943,W,1,07,1.54,195.31,M,-34.268,M,,*7D
\c:1494396110617*6D\$GPRMC,202257,A,4206.5446,N,08750.4943,W,11.4480,331.341,280517,,*0A
\c:1494396110617*6D\$GPGSA,A,3,00,00,00,00,00,00,00,,,,,,2.3,1.5,1.7*31
\c:1494396111591*61\$GPGSV,3,1,12,06,12,199,-0,03,10,113,-0,13,14,265,-0,17,62,270,46*63
\c:1494396111591*61\$GPGSV,3,2,12,131,33,220,41,19,38,253,44,28,76,045,47,07,10,164,-0*5B
\c:1494396111592*62\$GPGSV,3,3,12,22,14,086,-0,11,33,053,44,30,42,185,42,01,47,062,45*62
\c:1494396111614*6F\$GPZDA,202258.00,28,05,2017,00,00*62
\c:1494396111614*6F\$GPGGA,202258,4206.5475,N,08750.4964,W,1,07,1.54,194.89,M,-34.268,M,,*75
\c:1494396111614*6F\$GPRMC,202258,A,4206.5475,N,08750.4964,W,11.4480,331.341,280517,,*00
\c:1494396111614*6F\$GPGSA,A,3,00,00,00,00,00,00,00,,,,,,2.3,1.5,1.7*31
\c:1494396112591*62\$GPGSV,3,1,12,06,12,199,-0,03,10,113,-0,13,14,265,-0,17,62,270,46*63
\c:1494396112591*62\$GPGSV,3,2,12,131,33,220,-0,19,38,253,44,28,76,045,47,07,10,164,-0*43
\c:1494396112591*62\$GPGSV,3,3,12,22,14,086,-0,11,33,053,43,30,42,185,42,01,47,062,46*66
\c:1494396112615*6D\$GPZDA,202259.00,28,05,2017,00,00*63
\c:1494396112615*6D\$GPGGA,202259,4206.5500,N,08750.4983,W,1,07,1.54,194.80,M,-34.268,M,,*77
\c:1494396112615*6D\$GPRMC,202259,A,4206.5500,N,08750.4983,W,11.4480,331.341,280517,,*0B
\c:1494396112615*6D\$GPGSA,A,3,00,00,00,00,00,00,00,,,,,,2.3,1.5,1.7*31
\c:1494396113591*63\$GPGSV,3,1,12,06,12,199,-0,03,10,113,-0,13,14,265,-0,17,62,270,45*60
\c:1494396113592*60\$GPGSV,3,2,12,131,33,220,-0,19,38,253,42,28,76,045,47,07,10,164,-0*45
\c:1494396113592*60\$GPGSV,3,3,12,22,14,086,-0,11,33,053,42,30,42,185,41,01,47,062,45*67
\c:1494396113613*6A\$GPZDA,202300.00,28,05,2017,00,00*6E
\c:1494396113613*6A\$GPGGA,202300,4206.5525,N,08750.5004,W,1,06,1.62,194.75,M,-34.268,M,,*74
\c:1494396113613*6A\$GPRMC,202300,A,4206.5525,N,08750.5004,W,11.4480,331.341,280517,,*06
\c:1494396113613*6A\$GPGSA,A,3,00,00,00,00,00,00,,,,,,,2.5,1.6,1.9*3A
\c:1494396114591*64\$GPGSV,3,1,12,06,12,199,-0,03,10,113,-0,13,14,265,38,17,62,270,44*77
\c:1494396114591*64\$GPGSV,3,2,12,131,33,220,-0,19,38,253,42,28,76,045,47,07,10,164,-0*45
\c:1494396114592*67\$GPGSV,3,3,12,22,14,086,-0,11,33,053,41,30,42,185,42,01,47,062,44*66
\c:1494396114634*68\$GPZDA,202301.00,28,05,2017,00,00*6F
\c:1494396114634*68\$GPGGA,202301,4206.5551,N,08750.5030,W,1,06,1.62,194.96,M,-34.268,M,,*7C
\c:1494396114634*68\$GPRMC,202301,A,4206.5551,N,08750.5030,W,11.4480,331.341,280517,,*03
\c:1494396114634*68\$GPGSA,A,3,00,00,00,00,00,00,,,,,,,2.5,1.6,1.9*3A
\c:1494396115590*64\$GPGSV,3,1,12,06,12,199,-0,03,10,113,-0,13,14,265,38,17,62,270,44*77
\c:1494396115590*64\$GPGSV,3,2,12,131,33,220,42,19,38,253,42,28,76,045,48,07,10,164,-0*51
\c:1494396115590*64\$GPGSV,3,3,12,22,14,086,-0,11,33,053,40,30,42,185,42,01,47,062,43*60
\c:1494396115630*6D\$GPZDA,202302.00,28,05,2017,00,00*6C
\c:1494396115630*6D\$GPGGA,202302,4206.5576,N,08750.5055,W,1,07,1.54,194.94,M,-34.268,M,,*7F
\c:1494396115630*6D\$GPRMC,202302,A,4206.5576,N,08750.5055,W,11.4480,331.341,280517,,*06
\c:1494396115630*6D\$GPGSA,A,3,00,00,00,00,00,00,00,,,,,,2.3,1.5,1.7*31
\c:1494396116590*67\$GPGSV,3,1,12,06,12,199,-0,03,10,113,-0,13,14,265,38,17,62,270,44*77
\c:1494396116590*67\$GPGSV,3,2,12,131,33,220,41,19,38,253,42,28,76,045,48,07,10,164,-0*52
\c:1494396116590*67\$GPGSV,3,3,12,22,14,086,-0,11,33,053,-0,30,42,185,42,01,47,062,42*78
\c:1494396116616*6A\$GPZDA,202303.00,28,05,2017,00,00*6D
\c:1494396116616*6A\$GPGGA,202303,4206.5589,N,08750.5096,W,1,08,1.41,195.67,M,-34.268,M,,*77
\c:1494396116616*6A\$GPRMC,202303,A,4206.5589,N,08750.5096,W,11.4480,331.341,280517,,*08
\c:1494396116617*6B\$GPGSA,A,3,00,00,00,00,00,00,00,00,,,,,2.2,1.4,1.6*30
\c:1494396117592*64\$GPGSV,3,1,12,06,12,199,-0,03,10,113,-0,13,14,265,-0,17,62,270,46*63
\c:1494396117592*64\$GPGSV,3,2,12,131,33,220,44,19,38,253,42,28,76,045,47,07,10,164,-0*58
\c:1494396117592*64\$GPGSV,3,3,12,22,14,086,-0,11,32,053,-0,30,42,185,42,01,47,062,41*7A
\c:1494396117615*68\$GPZDA,202304.00,28,05,2017,00,00*6A
\c:1494396117615*68\$GPGGA,202304,4206.5600,N,08750.5138,W,1,08,1.41,195.72,M,-34.268,M,,*73
\c:1494396117616*6B\$GPRMC,202304,A,4206.5600,N,08750.5138,W,11.4480,331.341,280517,,*08
\c:1494396117616*6B\$GPGSA,A,3,00,00,00,00,00,00,00,00,,,,,2.2,1.4,1.6*30
\c:1494396118589*61\$GPGSV,3,1,12,06,12,199,-0,03,10,113,-0,13,14,265,40,17,62,270,46*7A
\c:1494396118590*69\$GPGSV,3,2,12,131,33,220,43,19,38,253,42,28,76,045,47,07,10,164,-0*5F
\c:1494396118590*69\$GPGSV,3,3,12,22,14,086,-0,11,32,053,-0,30,42,185,43,01,47,062,42*78
\c:1494396118620*61\$GPZDA,202305.00,28,05,2017,00,00*6B
\c:1494396118620*61\$GPGGA,202305,4206.5607,N,08750.5174,W,1,08,1.41,195.74,M,-34.268,M,,*7B
\c:1494396118620*61\$GPRMC,202305,A,4206.5607,N,08750.5174,W,11.4480,331.341,280517,,*06
\c:1494396118620*61\$GPGSA,A,3,00,00,00,00,00,00,00,00,,,,,2.2,1.4,1.6*30
\c:1494396119591*69\$GPGSV,3,1,12,06,12,199,-0,03,10,113,-0,13,14,265,40,17,62,270,46*7A
\c:1494396119591*69\$GPGSV,3,2,12,131,33,220,-0,19,38,253,42,28,76,045,47,07,10,164,-0*45
\c:1494396119591*69\$GPGSV,3,3,12,22,14,086,-0,11,32,053,-0,30,42,185,42,01,47,062,41*7A
\c:1494396119613*60\$GPZDA,202306.00,28,05,2017,00,00*68
\c:1494396119614*67\$GPGGA,202306,4206.5614,N,08750.5209,W,1,08,1.41,195.99,M,-34.268,M,,*70
\c:1494396119614*67\$GPRMC,202306,A,4206.5614,N,08750.5209,W,11.4480,331.341,280517,,*0E
\c:1494396119614*67\$GPGSA,A,3,00,00,00,00,00,00,00,00,,,,,2.2,1.4,1.6*30
\c:1494396120590*62\$GPGSV,3,1,12,06,12,199,-0,03,10,113,-0,13,14,265,42,17,62,270,45*7B
\c:1494396120591*63\$GPGSV,3,2,12,131,33,220,44,19,38,253,41,28,76,045,47,07,10,164,-0*5B
\c:1494396120591*63\$GPGSV,3,3,12,22,14,086,-0,11,32,053,-0,30,42,185,41,01,47,062,41*79
\c:1494396121591*62\$GPGSV,3,1,12,06,12,199,-0,03,10,113,-0,13,14,265,41,17,62,270,45*78
\c:1494396121591*62\$GPGSV,3,2,12,131,33,220,43,19,38,253,41,28,76,045,47,07,10,164,-0*5C
\c:1494396121591*62\$GPGSV,3,3,12,22,14,086,-0,11,32,053,-0,30,42,185,40,01,47,062,42*7B
\c:1494396122590*60\$GPGSV,3,1,12,06,12,199,-0,03,10,113,-0,13,14,265,-0,17,62,270,44*61
\c:1494396122590*60\$GPGSV,3,2,12,131,33,220,42,19,38,253,40,28,76,045,46,07,10,164,-0*5D
\c:1494396122590*60\$GPGSV,3,3,12,22,14,086,-0,11,32,053,46,30,42,185,39,01,47,062,45*6D
\c:1494396123590*61\$GPGSV,3,1,12,06,12,199,-0,03,10,113,-0,13,14,265,-0,17,62,270,43*66
\c:1494396123591*60\$GPGSV,3,2,12,131,33,220,42,19,38,253,41,28,76,045,45,07,10,164,-0*5F
\c:1494396123591*60\$GPGSV,3,3,12,22,14,086,-0,11,32,053,46,30,42,185,38,01,47,062,46*6F
\c:1494396124590*66\$GPGSV,3,1,12,06,12,199,-0,03,10,113,-0,13,14,265,30,17,62,270,42*79
\c:1494396124590*66\$GPGSV,3,2,12,131,33,220,41,19,38,253,41,28,76,045,44,07,10,164,-0*5D
\c:1494396124590*66\$GPGSV,3,3,12,22,14,086,-0,11,32,053,46,30,42,185,39,01,47,062,47*6F
\c:1494396125591*66\$GPGSV,3,1,12,06,12,199,-0,03,10,113,-0,13,13,264,30,17,62,270,42*7F
\c:1494396125591*66\$GPGSV,3,2,12,131,33,220,-0,19,38,253,40,28,76,045,44,07,10,164,-0*44
\c:1494396125591*66\$GPGSV,3,3,12,22,14,086,-0,11,32,053,44,30,42,185,39,01,47,062,47*6D
\c:1494396126589*6C\$GPGSV,3,1,12,06,12,199,-0,03,10,113,-0,13,13,264,-0,17,62,270,42*61
\c:1494396126589*6C\$GPGSV,3,2,12,131,33,220,-0,19,38,253,42,28,76,045,44,07,10,164,-0*46
\c:1494396126589*6C\$GPGSV,3,3,12,22,14,086,-0,11,32,053,43,30,42,185,39,01,47,062,46*6B
\c:1494396127591*64\$GPGSV,3,1,12,06,12,199,-0,03,10,113,-0,13,13,264,-0,17,62,270,45*66
\c:1494396127591*64\$GPGSV,3,2,12,131,33,220,-0,19,38,253,43,28,76,045,44,07,10,164,-0*47
\c:1494396127591*64\$GPGSV,3,3,12,22,14,086,-0,11,32,053,43,30,42,185,41,01,47,062,45*67
\c:1494396128590*6A\$GPGSV,3,1,12,06,12,199,-0,03,10,113,-0,13,13,264,-0,17,62,270,44*67
\c:1494396128590*6A\$GPGSV,3,2,12,131,33,220,-0,19,38,253,44,28,76,045,44,07,10,164,-0*40
\c:1494396128590*6A\$GPGSV,3,3,12,22,14,086,-0,11,32,053,-0,30,42,185,43,01,47,062,45*7F
\c:1494396129590*6B\$GPGSV,3,1,12,06,12,199,-0,03,10,113,-0,13,13,264,-0,17,62,270,43*60
\c:1494396129590*6B\$GPGSV,3,2,12,131,33,220,47,19,38,253,44,28,76,045,45,07,10,164,-0*5F
\c:1494396129590*6B\$GPGSV,3,3,12,22,14,086,-0,11,32,053,-0,30,42,185,42,01,47,062,45*7E
\c:1494396130590*63\$GPGSV,3,1,12,06,12,199,-0,03,10,113,-0,13,13,264,-0,17,62,270,42*61
\c:1494396130591*62\$GPGSV,3,2,12,131,33,220,47,19,38,253,45,28,76,045,45,07,10,164,-0*5E
\c:1494396130591*62\$GPGSV,3,3,12,22,14,086,-0,11,32,053,-0,30,42,185,43,01,47,062,44*7E
\c:1494396130613*6B\$GPZDA,202317.00,28,05,2017,00,00*68
\c:1494396130613*6B\$GPGGA,202317,4206.5715,N,08750.5378,W,1,00,,194.51,M,-34.268,M,,*60
\c:1494396130613*6B\$GPRMC,202317,A,4206.5715,N,08750.5378,W,0.3579,263.796,280517,,*31
\c:1494396130613*6B\$GPGSA,A,3,,,,,,,,,,,,,0.0,0.0,0.0*32
\c:1494396131591*63\$GPGSV,3,1,12,06,12,199,-0,03,10,113,-0,13,13,264,-0,17,62,270,41*62
\c:1494396131591*63\$GPGSV,3,2,12,131,33,220,47,19,38,253,45,28,76,045,45,07,10,164,-0*5E
\c:1494396131592*60\$GPGSV,3,3,12,22,14,086,-0,11,32,053,-0,30,42,185,44,01,47,062,44*79
\c:1494396131617*6E\$GPZDA,202318.00,28,05,2017,00,00*67
\c:1494396131617*6E\$GPGGA,202318,4206.5715,N,08750.5376,W,1,07,1.55,194.01,M,-34.268,M,,*7C
\c:1494396131617*6E\$GPRMC,202318,A,4206.5715,N,08750.5376,W,0.0106,11.483,280517,,*0F
\c:1494396131617*6E\$GPGSA,A,3,00,00,00,00,00,00,00,,,,,,2.3,1.5,1.6*30
\c:1494396132592*63\$GPGSV,3,1,12,06,12,199,-0,03,10,113,-0,13,13,264,-0,17,62,270,40*63
\c:1494396132592*63\$GPGSV,3,2,12,131,33,220,47,19,38,253,46,28,76,045,45,07,10,164,-0*5D
\c:1494396132592*63\$GPGSV,3,3,12,22,14,086,-0,11,32,053,-0,30,42,185,45,01,47,062,44*78
\c:1494396132613*69\$GPZDA,202319.00,28,05,2017,00,00*66
\c:1494396132613*69\$GPGGA,202319,4206.5715,N,08750.5375,W,1,07,1.55,193.49,M,-34.268,M,,*75
\c:1494396132613*69\$GPRMC,202319,A,4206.5715,N,08750.5375,W,0.0492,262.353,280517,,*39
\c:1494396132613*69\$GPGSA,A,3,00,00,00,00,00,00,00,,,,,,2.3,1.5,1.6*30
