\c:1494445153072*66\$GPGSV,3,1,12,02,68,283,41,06,55,048,39,23,08,051,37,19,41,100,38*76
\c:1494445153072*66\$GPGSV,3,2,12,09,14,082,-0,138,38,209,-0,25,28,313,43,05,29,192,40*4C
\c:1494445153072*66\$GPGSV,3,3,12,24,02,241,37,131,33,221,-0,12,60,267,47,17,22,108,-0*45
\c:1494445153102*60\$GPZDA,234134.00,07,06,2017,00,00*60
\c:1494445153102*60\$GPGGA,234134,4157.7106,N,08736.2256,W,1,10,0.87,174.25,M,-34.239,M,,*74
\c:1494445153102*60\$GPRMC,234134,A,4157.7106,N,08736.2256,W,3.6968,70.037,070617,,*04
\c:1494445153102*60\$GPGSA,A,3,00,00,00,00,00,00,00,00,00,00,,,1.5,0.9,1.2*3C
\c:1494445154070*63\$GPGSV,3,1,12,02,68,283,40,06,55,048,38,23,08,051,38,19,41,100,38*79
\c:1494445154071*62\$GPGSV,3,2,12,09,14,082,-0,138,38,209,-0,25,28,313,43,05,29,192,40*4C
\c:1494445154071*62\$GPGSV,3,3,12,24,02,241,37,131,33,221,-0,12,60,267,47,17,22,108,34*5F
\c:1494445154102*67\$GPZDA,234135.00,07,06,2017,00,00*61
\c:1494445154102*67\$GPGGA,234135,4157.7110,N,08736.2244,W,1,10,0.87,174.21,M,-34.239,M,,*75
\c:1494445154102*67\$GPRMC,234135,A,4157.7110,N,08736.2244,W,3.6877,67.783,070617,,*00
\c:1494445154102*67\$GPGSA,A,3,00,00,00,00,00,00,00,00,00,00,,,1.5,0.9,1.2*3C
\c:1494445155071*63\$GPGSV,3,1,12,02,68,283,40,06,55,048,37,23,08,051,38,19,41,100,38*76
\c:1494445155071*63\$GPGSV,3,2,12,09,14,082,31,138,38,209,-0,25,28,313,42,05,29,192,41*53
\c:1494445155071*63\$GPGSV,3,3,12,24,02,241,37,131,33,221,-0,12,60,267,47,17,22,108,35*5E
\c:1494445155102*66\$GPZDA,234136.00,07,06,2017,00,00*62
\c:1494445155102*66\$GPGGA,234136,4157.7114,N,08736.2234,W,1,10,0.87,173.97,M,-34.239,M,,*7F
\c:1494445155102*66\$GPRMC,234136,A,4157.7114,N,08736.2234,W,3.3136,67.668,070617,,*0D
\c:1494445155103*67\$GPGSA,A,3,00,00,00,00,00,00,00,00,00,00,,,1.5,0.9,1.2*3C
\c:1494445156072*63\$GPGSV,3,1,12,02,68,283,40,06,55,048,-0,23,08,051,38,19,41,100,38*6F
\c:1494445156072*63\$GPGSV,3,2,12,09,14,082,30,138,38,209,-0,25,28,313,41,05,29,192,40*50
\c:1494445156072*63\$GPGSV,3,3,12,24,02,241,37,131,33,221,-0,12,60,267,48,17,22,108,36*52
\c:1494445156100*67\$GPZDA,234137.00,07,06,2017,00,00*63
\c:1494445156101*66\$GPGGA,234137,4157.7117,N,08736.2221,W,1,10,0.87,173.92,M,-34.239,M,,*7C
\c:1494445156101*66\$GPRMC,234137,A,4157.7117,N,08736.2221,W,3.6556,70.375,070617,,*03
\c:1494445156101*66\$GPGSA,A,3,00,00,00,00,00,00,00,00,00,00,,,1.5,0.9,1.2*3C
\c:1494445157072*62\$GPGSV,3,1,12,02,68,283,40,06,55,048,41,23,08,051,38,19,41,100,-0*61
\c:1494445157081*6E\$GPGSV,3,2,12,09,14,082,32,138,38,209,-0,25,28,313,40,05,29,192,39*5D
\c:1494445157081*6E\$GPGSV,3,3,12,24,02,241,38,131,33,221,-0,12,60,267,47,17,22,108,39*5D
\c:1494445157110*67\$GPZDA,234138.00,07,06,2017,00,00*6C
\c:1494445157110*67\$GPGGA,234138,4157.7121,N,08736.2209,W,1,10,0.87,174.16,M,-34.239,M,,*77
\c:1494445157111*66\$GPRMC,234138,A,4157.7121,N,08736.2209,W,3.5525,64.161,070617,,*06
\c:1494445157111*66\$GPGSA,A,3,00,00,00,00,00,00,00,00,00,00,,,1.5,0.9,1.2*3C
\c:1494445158071*6E\$GPGSV,3,1,12,02,68,283,41,06,55,048,40,23,08,051,-0,19,41,100,-0*77
\c:1494445158071*6E\$GPGSV,3,2,12,09,14,082,33,138,38,209,-0,25,28,313,39,05,29,192,40*5C
\c:1494445158071*6E\$GPGSV,3,3,12,24,02,241,38,131,33,221,-0,12,60,267,47,17,22,108,41*52
\c:1494445158102*6B\$GPZDA,234139.00,07,06,2017,00,00*6D
\c:1494445158102*6B\$GPGGA,234139,4157.7125,N,08736.2197,W,1,10,0.87,174.32,M,-34.239,M,,*70
\c:1494445158102*6B\$GPRMC,234139,A,4157.7125,N,08736.2197,W,3.5335,63.402,070617,,*07
\c:1494445158102*6B\$GPGSA,A,3,00,00,00,00,00,00,00,00,00,00,,,1.5,0.9,1.2*3C
\c:1494445159071*6F\$GPGSV,3,1,12,02,68,283,41,06,55,048,40,23,08,051,-0,19,41,100,-0*77
\c:1494445159071*6F\$GPGSV,3,2,12,09,14,082,33,138,38,209,-0,25,28,313,38,05,29,192,39*53
\c:1494445159072*6C\$GPGSV,3,3,12,24,02,241,39,131,33,221,-0,12,60,267,47,17,22,108,42*50
\c:1494445159108*60\$GPZDA,234140.00,07,06,2017,00,00*63
\c:1494445159108*60\$GPGGA,234140,4157.7129,N,08736.2186,W,1,10,0.87,174.18,M,-34.239,M,,*7A
\c:1494445159108*60\$GPRMC,234140,A,4157.7129,N,08736.2186,W,3.3911,71.155,070617,,*0B
\c:1494445159108*60\$GPGSA,A,3,00,00,00,00,00,00,00,00,00,00,,,1.5,0.9,1.2*3C
\c:1494445160071*65\$GPGSV,3,1,12,02,68,283,42,06,55,048,42,23,08,051,-0,19,41,100,-0*76
\c:1494445160072*66\$GPGSV,3,2,12,09,14,082,35,138,38,209,-0,25,28,313,38,05,29,192,37*5B
\c:1494445160072*66\$GPGSV,3,3,12,24,02,241,39,131,33,221,-0,12,60,267,47,17,22,108,43*51
\c:1494445160108*6A\$GPZDA,234141.00,07,06,2017,00,00*62
\c:1494445160108*6A\$GPGGA,234141,4157.7134,N,08736.2175,W,1,10,0.87,173.90,M,-34.239,M,,*7C
\c:1494445160108*6A\$GPRMC,234141,A,4157.7134,N,08736.2175,W,3.5672,61.274,070617,,*07
\c:1494445160108*6A\$GPGSA,A,3,00,00,00,00,00,00,00,00,00,00,,,1.5,0.9,1.2*3C
\c:1494445161071*64\$GPGSV,3,1,12,02,68,283,41,06,55,048,42,23,08,051,-0,19,41,100,-0*75
\c:1494445161072*67\$GPGSV,3,2,12,09,14,082,35,138,38,209,-0,25,28,313,37,05,29,192,36*55
\c:1494445161072*67\$GPGSV,3,3,12,24,02,241,39,131,33,221,38,12,60,267,47,17,22,108,43*47
\c:1494445161102*61\$GPZDA,234142.00,07,06,2017,00,00*61
\c:1494445161102*61\$GPGGA,234142,4157.7139,N,08736.2163,W,1,10,0.87,174.10,M,-34.239,M,,*7A
\c:1494445161102*61\$GPRMC,234142,A,4157.7139,N,08736.2163,W,3.5475,60.235,070617,,*0F
\c:1494445161102*61\$GPGSA,A,3,00,00,00,00,00,00,00,00,00,00,,,1.5,0.9,1.2*3C
\c:1494445162072*64\$GPGSV,3,1,12,02,68,283,42,06,55,048,42,23,08,051,-0,19,41,100,-0*76
\c:1494445162072*64\$GPGSV,3,2,12,09,14,082,33,138,38,209,-0,25,28,313,37,05,29,192,37*52
\c:1494445162072*64\$GPGSV,3,3,12,24,02,241,40,131,33,221,-0,12,60,267,46,17,22,108,42*5F
\c:1494445162107*67\$GPZDA,234143.00,07,06,2017,00,00*60
\c:1494445162113*62\$GPGGA,234143,4157.7144,N,08736.2151,W,1,10,0.87,174.34,M,-34.239,M,,*76
\c:1494445162114*65\$GPRMC,234143,A,4157.7144,N,08736.2151,W,3.5475,60.235,070617,,*05
\c:1494445162114*65\$GPGSA,A,3,00,00,00,00,00,00,00,00,00,00,,,1.5,0.9,1.2*3C
\c:1494445163071*66\$GPGSV,3,1,12,02,68,283,42,06,55,048,41,23,08,051,35,19,41,100,-0*6E
\c:1494445163072*65\$GPGSV,3,2,12,09,14,082,33,138,38,209,-0,25,28,313,37,05,29,192,37*52
\c:1494445163072*65\$GPGSV,3,3,12,24,02,241,40,131,33,221,-0,12,60,267,47,17,22,108,41*5D
\c:1494445163106*67\$GPZDA,234144.00,07,06,2017,00,00*67
\c:1494445163107*66\$GPGGA,234144,4157.7146,N,08736.2139,W,1,10,0.87,173.98,M,-34.239,M,,*7C
\c:1494445163107*66\$GPRMC,234144,A,4157.7146,N,08736.2139,W,3.5475,60.235,070617,,*0E
\c:1494445163107*66\$GPGSA,A,3,00,00,00,00,00,00,00,00,00,00,,,1.5,0.9,1.2*3C
\c:1494445164070*60\$GPGSV,3,1,12,02,68,283,41,06,55,048,40,23,08,051,-0,19,41,100,-0*77
\c:1494445164071*61\$GPGSV,3,2,12,09,14,082,33,138,38,209,-0,25,28,313,40,05,29,192,39*5C
\c:1494445164071*61\$GPGSV,3,3,12,24,02,241,40,131,33,221,-0,12,60,267,47,17,22,108,41*5D
\c:1494445164097*69\$GPZDA,234145.00,07,06,2017,00,00*66
\c:1494445164097*69\$GPGGA,234145,4157.7152,N,08736.2127,W,1,10,0.87,174.02,M,-34.239,M,,*73
\c:1494445164097*69\$GPRMC,234145,A,4157.7152,N,08736.2127,W,3.5475,60.235,070617,,*05
\c:1494445164097*69\$GPGSA,A,3,00,00,00,00,00,00,00,00,00,00,,,1.5,0.9,1.2*3C
\c:1494445165071*60\$GPGSV,3,1,12,02,68,283,40,06,55,048,40,23,08,051,-0,19,41,100,-0*76
\c:1494445165071*60\$GPGSV,3,2,12,09,14,082,33,138,38,209,-0,25,28,313,42,05,29,192,39*5E
\c:1494445165071*60\$GPGSV,3,3,12,24,02,241,40,131,33,221,-0,12,60,267,46,17,22,108,40*5D
\c:1494445165102*65\$GPZDA,234146.00,07,06,2017,00,00*65
\c:1494445165102*65\$GPGGA,234146,4157.7160,N,08736.2115,W,1,09,0.90,174.19,M,-34.239,M,,*74
\c:1494445165102*65\$GPRMC,234146,A,4157.7160,N,08736.2115,W,3.5563,50.983,070617,,*05
\c:1494445165102*65\$GPGSA,A,3,00,00,00,00,00,00,00,00,00,,,,1.5,0.9,1.2*3C
\c:1494445166072*60\$GPGSV,3,1,12,02,68,283,41,06,55,048,41,23,08,051,-0,19,41,100,-0*76
\c:1494445166072*60\$GPGSV,3,2,12,09,14,082,36,138,38,209,-0,25,28,313,43,05,29,192,39*5A
\c:1494445166072*60\$GPGSV,3,3,12,24,02,241,40,131,33,221,39,12,60,267,45,17,22,108,39*47
\c:1494445166102*66\$GPZDA,234147.00,07,06,2017,00,00*64
\c:1494445166102*66\$GPGGA,234147,4157.7166,N,08736.2104,W,1,09,0.90,174.36,M,-34.239,M,,*7E
\c:1494445166102*66\$GPRMC,234147,A,4157.7166,N,08736.2104,W,3.2911,50.934,070617,,*00
\c:1494445166102*66\$GPGSA,A,3,00,00,00,00,00,00,00,00,00,,,,1.5,0.9,1.2*3C
\c:1494445167071*62\$GPGSV,3,1,12,02,68,283,41,06,55,048,41,23,08,051,-0,19,41,100,-0*76
\c:1494445167071*62\$GPGSV,3,2,12,09,14,082,37,138,38,209,43,25,28,313,43,05,29,192,39*41
\c:1494445167071*62\$GPGSV,3,3,12,24,02,241,40,131,33,221,39,12,60,267,44,17,22,108,38*47
\c:1494445167107*62\$GPZDA,234148.00,07,06,2017,00,00*6B
\c:1494445167107*62\$GPGGA,234148,4157.7173,N,08736.2093,W,1,09,0.90,174.55,M,-34.239,M,,*7F
\c:1494445167107*62\$GPRMC,234148,A,4157.7173,N,08736.2093,W,3.3347,53.802,070617,,*0B
\c:1494445167107*62\$GPGSA,A,3,00,00,00,00,00,00,00,00,00,,,,1.5,0.9,1.2*3C
\c:1494445168071*6D\$GPGSV,3,1,12,02,68,283,41,06,55,048,41,23,08,051,-0,19,41,100,-0*76
\c:1494445168071*6D\$GPGSV,3,2,12,09,14,082,39,138,38,209,43,25,28,313,43,05,29,192,40*41
\c:1494445168071*6D\$GPGSV,3,3,12,24,02,241,40,131,33,221,38,12,60,267,43,17,22,108,38*41
\c:1494445168098*6A\$GPZDA,234149.00,07,06,2017,00,00*6A
\c:1494445168098*6A\$GPGGA,234149,4157.7181,N,08736.2083,W,1,09,0.90,174.74,M,-34.239,M,,*71
\c:1494445168098*6A\$GPRMC,234149,A,4157.7181,N,08736.2083,W,3.3733,49.708,070617,,*0F
\c:1494445168098*6A\$GPGSA,A,3,00,00,00,00,00,00,00,00,00,,,,1.5,0.9,1.2*3C
\c:1494445169071*6C\$GPGSV,3,1,12,02,68,283,40,06,55,048,41,23,08,051,-0,19,41,100,-0*77
\c:1494445169071*6C\$GPGSV,3,2,12,09,14,082,38,138,38,209,42,25,28,313,44,05,29,192,40*46
\c:1494445169071*6C\$GPGSV,3,3,12,24,02,241,39,131,33,221,37,12,60,267,43,17,22,109,38*41
\c:1494445169099*6A\$GPZDA,234150.00,07,06,2017,00,00*62
\c:1494445169099*6A\$GPGGA,234150,4157.7188,N,08736.2072,W,1,09,0.90,174.88,M,-34.239,M,,*7D
\c:1494445169099*6A\$GPRMC,234150,A,4157.7188,N,08736.2072,W,3.3547,50.232,070617,,*05
\c:1494445169099*6A\$GPGSA,A,3,00,00,00,00,00,00,00,00,00,,,,1.5,0.9,1.2*3C
\c:1494445170072*67\$GPGSV,3,1,12,02,68,283,41,06,55,048,41,23,08,051,-0,19,41,100,-0*76
\c:1494445170072*67\$GPGSV,3,2,12,09,14,082,39,138,38,209,42,25,28,313,44,05,29,192,40*47
\c:1494445170072*67\$GPGSV,3,3,12,24,02,241,38,131,33,221,39,12,60,267,43,17,22,109,37*41
\c:1494445170097*6C\$GPZDA,234151.00,07,06,2017,00,00*63
\c:1494445170097*6C\$GPGGA,234151,4157.7196,N,08736.2061,W,1,09,0.90,174.97,M,-34.239,M,,*7F
\c:1494445170097*6C\$GPRMC,234151,A,4157.7196,N,08736.2061,W,3.5465,45.941,070617,,*05
\c:1494445170098*63\$GPGSA,A,3,00,00,00,00,00,00,00,00,00,,,,1.5,0.9,1.2*3C
\c:1494445171072*66\$GPGSV,3,1,12,02,68,283,42,06,55,048,40,23,08,051,-0,19,41,100,-0*74
\c:1494445171072*66\$GPGSV,3,2,12,09,14,082,38,138,38,209,-0,25,28,313,45,05,29,192,39*52
\c:1494445171072*66\$GPGSV,3,3,12,24,02,241,38,131,33,221,41,12,60,267,43,17,22,109,37*4E
\c:1494445171095*6F\$GPZDA,234152.00,07,06,2017,00,00*60
\c:1494445171096*6C\$GPGGA,234152,4157.7206,N,08736.2049,W,1,09,0.90,175.32,M,-34.239,M,,*72
\c:1494445171096*6C\$GPRMC,234152,A,4157.7206,N,08736.2049,W,3.5465,45.941,070617,,*06
\c:1494445171096*6C\$GPGSA,A,3,00,00,00,00,00,00,00,00,00,,,,1.5,0.9,1.2*3C
\c:1494445172071*66\$GPGSV,3,1,12,02,68,283,42,06,55,048,40,23,08,051,-0,19,41,100,35*6F
\c:1494445172071*66\$GPGSV,3,2,12,09,14,082,37,138,38,209,-0,25,28,313,45,05,29,192,38*5C
\c:1494445172072*65\$GPGSV,3,3,12,24,02,241,-0,131,33,221,43,12,60,267,42,17,22,109,35*59
\c:1494445172101*60\$GPZDA,234153.00,07,06,2017,00,00*61
\c:1494445172102*63\$GPGGA,234153,4157.7216,N,08736.2039,W,1,09,0.90,175.57,M,-34.239,M,,*76
\c:1494445172102*63\$GPRMC,234153,A,4157.7216,N,08736.2039,W,3.5465,45.941,070617,,*01
\c:1494445172102*63\$GPGSA,A,3,00,00,00,00,00,00,00,00,00,,,,1.5,0.9,1.2*3C
\c:1494445173071*67\$GPGSV,3,1,12,02,68,283,42,06,55,048,39,23,08,051,-0,19,41,100,34*60
\c:1494445173072*64\$GPGSV,3,2,12,09,14,082,37,138,38,209,42,25,28,313,46,05,29,192,38*44
\c:1494445173072*64\$GPGSV,3,3,12,24,02,241,-0,131,33,221,42,12,60,267,41,17,22,109,36*58
\c:1494445173096*6E\$GPZDA,234154.00,07,06,2017,00,00*66
\c:1494445173097*6F\$GPGGA,234154,4157.7227,N,08736.2028,W,1,09,0.90,175.67,M,-34.239,M,,*70
\c:1494445173097*6F\$GPRMC,234154,A,4157.7227,N,08736.2028,W,3.5465,45.941,070617,,*04
\c:1494445173097*6F\$GPGSA,A,3,00,00,00,00,00,00,00,00,00,,,,1.5,0.9,1.2*3C
\c:1494445174074*65\$GPGSV,3,1,12,02,68,283,42,06,55,048,39,23,08,051,-0,19,41,100,35*61
\c:1494445174074*65\$GPGSV,3,2,12,09,14,082,36,138,38,209,41,25,28,313,46,05,29,192,37*49
\c:1494445174074*65\$GPGSV,3,3,12,24,02,241,-0,131,33,221,41,12,60,267,41,17,22,109,35*58
\c:1494445174104*63\$GPZDA,234155.00,07,06,2017,00,00*67
\c:1494445174104*63\$GPGGA,234155,4157.7234,N,08736.2019,W,1,09,0.90,175.22,M,-34.239,M,,*70
\c:1494445174104*63\$GPRMC,234155,A,4157.7234,N,08736.2019,W,3.5465,45.941,070617,,*05
\c:1494445174104*63\$GPGSA,A,3,00,00,00,00,00,00,00,00,00,,,,1.5,0.9,1.2*3C
\c:1494445175073*63\$GPGSV,3,1,12,02,68,283,42,06,55,048,39,23,08,051,-0,19,41,100,35*61
\c:1494445175073*63\$GPGSV,3,2,12,09,14,082,-0,138,38,209,41,25,28,313,46,05,29,192,37*51
\c:1494445175073*63\$GPGSV,3,3,12,24,02,241,-0,131,33,221,41,12,60,267,41,17,22,109,35*58
\c:1494445175105*63\$GPZDA,234156.00,07,06,2017,00,00*64
\c:1494445175105*63\$GPGGA,234156,4157.7244,N,08736.2005,W,1,09,0.90,175.15,M,-34.239,M,,*7D
\c:1494445175105*63\$GPRMC,234156,A,4157.7244,N,08736.2005,W,3.5465,45.941,070617,,*0C
\c:1494445175105*63\$GPGSA,A,3,00,00,00,00,00,00,00,00,00,,,,1.5,0.9,1.2*3C
\c:1494445176072*61\$GPGSV,3,1,12,02,68,283,41,06,55,048,38,23,08,051,-0,19,41,100,36*60
\c:1494445176072*61\$GPGSV,3,2,12,09,14,082,-0,138,38,209,41,25,28,313,46,05,29,192,35*53
\c:1494445176072*61\$GPGSV,3,3,12,24,02,241,35,131,33,221,40,12,60,267,40,17,22,109,-0*58
\c:1494445176104*61\$GPZDA,234157.00,07,06,2017,00,00*65
\c:1494445176104*61\$GPGGA,234157,4157.7250,N,08736.1996,W,1,09,0.90,174.82,M,-34.239,M,,*76
\c:1494445176104*61\$GPRMC,234157,A,4157.7250,N,08736.1996,W,3.5465,45.941,070617,,*08
\c:1494445176104*61\$GPGSA,A,3,00,00,00,00,00,00,00,00,00,,,,1.5,0.9,1.2*3C
\c:1494445177072*60\$GPGSV,3,1,12,02,68,283,41,06,55,048,37,23,08,051,-0,19,40,101,37*6E
\c:1494445177072*60\$GPGSV,3,2,12,09,14,082,-0,138,38,209,40,25,28,313,46,05,29,192,36*51
\c:1494445177072*60\$GPGSV,3,3,12,24,02,241,34,131,33,221,41,12,60,267,41,17,22,109,35*42
\c:1494445177099*65\$GPZDA,234158.00,07,06,2017,00,00*6A
\c:1494445177099*65\$GPGGA,234158,4157.7256,N,08736.1989,W,1,09,0.89,174.55,M,-34.239,M,,*73
\c:1494445177099*65\$GPRMC,234158,A,4157.7256,N,08736.1989,W,3.5465,45.941,070617,,*0F
\c:1494445177099*65\$GPGSA,A,3,00,00,00,00,00,00,00,00,00,,,,1.5,0.9,1.2*3C
\c:1494445178072*6F\$GPGSV,3,1,12,02,68,283,40,06,55,048,37,23,08,051,-0,19,40,101,37*6F
\c:1494445178072*6F\$GPGSV,3,2,12,09,14,082,-0,138,38,209,-0,25,28,313,46,05,29,192,36*48
\c:1494445178072*6F\$GPGSV,3,3,12,24,02,241,34,131,33,221,-0,12,60,267,42,17,22,109,35*59
\c:1494445178095*66\$GPZDA,234159.00,07,06,2017,00,00*6B
\c:1494445178096*65\$GPGGA,234159,4157.7263,N,08736.1982,W,1,09,0.89,174.52,M,-34.239,M,,*78
\c:1494445178096*65\$GPRMC,234159,A,4157.7263,N,08736.1982,W,3.5465,45.941,070617,,*03
\c:1494445178096*65\$GPGSA,A,3,00,00,00,00,00,00,00,00,00,,,,1.5,0.9,1.2*3C
\c:1494445179072*6E\$GPGSV,3,1,12,02,68,283,-0,06,55,048,38,23,08,051,-0,19,40,101,-0*60
\c:1494445179072*6E\$GPGSV,3,2,12,09,14,082,-0,138,38,209,-0,25,28,313,46,05,29,192,37*49
\c:1494445179072*6E\$GPGSV,3,3,12,24,02,241,37,131,33,221,-0,12,60,267,40,17,22,109,-0*43
\c:1494445180071*6B\$GPGSV,3,1,12,02,68,283,35,06,55,048,38,23,08,051,-0,19,40,101,-0*7B
\c:1494445180071*6B\$GPGSV,3,2,12,09,14,082,35,138,38,209,-0,25,28,313,46,05,29,192,37*52
\c:1494445180071*6B\$GPGSV,3,3,12,24,02,241,38,131,33,221,-0,12,60,267,40,17,22,109,-0*4C
\c:1494445180100*6C\$GPZDA,234201.00,07,06,2017,00,00*65
\c:1494445180100*6C\$GPGGA,234201,4157.7280,N,08736.1958,W,1,00,,174.10,M,-34.239,M,,*6C
\c:1494445180100*6C\$GPRMC,234201,A,4157.7280,N,08736.1958,W,4.1383,39.353,070617,,*09
\c:1494445180101*6D\$GPGSA,A,2,,,,,,,,,,,,,0.0,0.0,0.0*33
\c:1494445181071*6A\$GPGSV,3,1,12,02,68,283,37,06,55,048,37,23,08,051,-0,19,40,101,41*6E
\c:1494445181071*6A\$GPGSV,3,2,12,09,14,082,36,138,38,209,-0,25,28,313,46,05,29,192,38*5E
\c:1494445181072*69\$GPGSV,3,3,12,24,02,241,40,131,33,221,-0,12,60,267,39,17,22,109,-0*4D
\c:1494445181099*6C\$GPZDA,234202.00,07,06,2017,00,00*66
\c:1494445181099*6C\$GPGGA,234202,4157.7287,N,08736.1949,W,1,09,0.89,173.63,M,-34.239,M,,*7D
\c:1494445181100*6D\$GPRMC,234202,A,4157.7287,N,08736.1949,W,3.9469,39.262,070617,,*02
\c:1494445181100*6D\$GPGSA,A,3,00,00,00,00,00,00,00,00,00,,,,1.5,0.9,1.2*3C
\c:1494445182071*69\$GPGSV,3,1,12,02,68,283,38,06,55,048,37,23,08,051,-0,19,40,101,39*6E
\c:1494445182072*6A\$GPGSV,3,2,12,09,14,082,36,138,38,209,-0,25,28,313,46,05,29,192,40*51
\c:1494445182072*6A\$GPGSV,3,3,12,24,02,241,41,131,33,221,-0,12,60,267,38,17,22,109,-0*4D
\c:1494445182094*62\$GPZDA,234203.00,07,06,2017,00,00*67
\c:1494445182094*62\$GPGGA,234203,4157.7295,N,08736.1942,W,1,09,0.89,173.49,M,-34.239,M,,*7C
\c:1494445182094*62\$GPRMC,234203,A,4157.7295,N,08736.1942,W,3.9469,39.262,070617,,*0B
\c:1494445182094*62\$GPGSA,A,3,00,00,00,00,00,00,00,00,00,,,,1.5,0.9,1.2*3C
\c:1494445183072*6B\$GPGSV,3,1,12,02,68,283,37,06,55,048,38,23,08,051,-0,19,40,101,38*6F
\c:1494445183073*6A\$GPGSV,3,2,12,09,14,082,37,138,38,209,40,25,28,313,46,05,29,192,40*49
\c:1494445183073*6A\$GPGSV,3,3,12,24,02,241,41,131,33,221,-0,12,60,267,37,17,22,109,-0*42
\c:1494445183106*69\$GPZDA,234204.00,07,06,2017,00,00*60
\c:1494445183106*69\$GPGGA,234204,4157.7307,N,08736.1930,W,1,09,0.89,172.27,M,-34.239,M,,*7D
\c:1494445183106*69\$GPRMC,234204,A,4157.7307,N,08736.1930,W,4.2997,34.694,070617,,*03
\c:1494445183106*69\$GPGSA,A,3,00,00,00,00,00,00,00,00,00,,,,1.5,0.9,1.2*3C
\c:1494445184072*6C\$GPGSV,3,1,12,02,68,283,37,06,55,048,37,23,08,051,-0,19,40,101,39*61
\c:1494445184072*6C\$GPGSV,3,2,12,09,14,082,37,138,38,209,-0,25,28,313,45,05,29,192,41*52
\c:1494445184072*6C\$GPGSV,3,3,12,24,02,241,42,131,33,221,-0,12,60,267,36,17,22,109,-0*40
\c:1494445184094*64\$GPZDA,234205.00,07,06,2017,00,00*61
\c:1494445184094*64\$GPGGA,234205,4157.7316,N,08736.1923,W,1,09,0.89,171.83,M,-34.239,M,,*73
\c:1494445184094*64\$GPRMC,234205,A,4157.7316,N,08736.1923,W,4.2199,31.520,070617,,*0F
\c:1494445184094*64\$GPGSA,A,3,00,00,00,00,00,00,00,00,00,,,,1.5,0.9,1.2*3C
\c:1494445185072*6D\$GPGSV,3,1,12,02,68,283,37,06,55,048,39,23,08,051,-0,19,40,101,38*6E
\c:1494445185072*6D\$GPGSV,3,2,12,09,14,082,38,138,38,209,-0,25,28,313,47,05,29,192,41*5F
\c:1494445185072*6D\$GPGSV,3,3,12,24,02,241,42,131,33,221,37,12,60,267,38,17,22,109,-0*57
\c:1494445185101*68\$GPZDA,234206.00,07,06,2017,00,00*62
\c:1494445185101*68\$GPGGA,234206,4157.7327,N,08736.1912,W,1,09,0.89,171.82,M,-34.239,M,,*71
\c:1494445185101*68\$GPRMC,234206,A,4157.7327,N,08736.1912,W,4.1897,31.317,070617,,*0A
\c:1494445185101*68\$GPGSA,A,3,00,00,00,00,00,00,00,00,00,,,,1.5,0.9,1.2*3C
\c:1494445186072*6E\$GPGSV,3,1,12,02,68,283,37,06,55,048,40,23,08,051,-0,19,40,101,38*60
\c:1494445186072*6E\$GPGSV,3,2,12,09,14,082,37,138,38,209,-0,25,28,313,47,05,29,192,42*53
\c:1494445186072*6E\$GPGSV,3,3,12,24,02,241,43,131,33,221,-0,12,60,267,37,17,22,109,-0*40
\c:1494445187072*6F\$GPGSV,3,1,12,02,68,283,37,06,55,048,40,23,08,051,-0,19,40,101,37*6F
\c:1494445187072*6F\$GPGSV,3,2,12,09,14,082,38,138,38,209,40,25,28,313,47,05,29,192,41*46
\c:1494445187072*6F\$GPGSV,3,3,12,24,02,241,42,131,33,221,-0,12,60,267,38,17,22,109,-0*4E
\c:1494445187099*6A\$GPZDA,234208.00,07,06,2017,00,00*6C
\c:1494445187099*6A\$GPGGA,234208,4157.7350,N,08736.1892,W,1,08,0.98,172.30,M,-34.239,M,,*7D
\c:1494445187099*6A\$GPRMC,234208,A,4157.7350,N,08736.1892,W,4.4174,29.986,070617,,*07
\c:1494445187099*6A\$GPGSA,A,3,00,00,00,00,00,00,00,00,,,,,1.9,1.0,1.6*3C
\c:1494445188071*63\$GPGSV,3,1,12,02,68,283,39,06,55,048,40,23,08,051,-0,19,40,101,-0*78
\c:1494445188071*63\$GPGSV,3,2,12,09,14,082,38,138,38,209,40,25,28,313,47,05,29,192,41*46
\c:1494445188071*63\$GPGSV,3,3,12,24,02,241,43,131,33,221,-0,12,60,267,39,17,22,109,-0*4E
\c:1494445188102*66\$GPZDA,234209.00,07,06,2017,00,00*6D
\c:1494445188102*66\$GPGGA,234209,4157.7361,N,08736.1882,W,1,08,0.98,172.66,M,-34.239,M,,*7C
\c:1494445188102*66\$GPRMC,234209,A,4157.7361,N,08736.1882,W,4.4313,29.272,070617,,*06
\c:1494445188102*66\$GPGSA,A,3,00,00,00,00,00,00,00,00,,,,,1.9,1.0,1.6*3C
\c:1494445189071*62\$GPGSV,3,1,12,02,68,283,39,06,55,048,41,23,08,051,-0,19,40,101,-0*79
\c:1494445189071*62\$GPGSV,3,2,12,09,14,082,38,138,38,209,-0,25,28,313,46,05,29,192,42*5D
\c:1494445189072*61\$GPGSV,3,3,12,24,02,241,43,131,33,221,-0,12,60,267,38,17,22,109,39*58
\c:1494445189102*67\$GPZDA,234210.00,07,06,2017,00,00*65
\c:1494445189102*67\$GPGGA,234210,4157.7372,N,08736.1874,W,1,08,0.98,173.08,M,-34.239,M,,*76
\c:1494445189102*67\$GPRMC,234210,A,4157.7372,N,08736.1874,W,4.4313,29.272,070617,,*05
\c:1494445189103*66\$GPGSA,A,3,00,00,00,00,00,00,00,00,,,,,1.9,1.0,1.6*3C
\c:1494445190071*6A\$GPGSV,3,1,12,02,68,283,38,06,55,048,41,23,08,051,-0,19,40,101,-0*78
\c:1494445190071*6A\$GPGSV,3,2,12,09,14,082,38,138,38,209,-0,25,28,313,46,05,29,192,42*5D
\c:1494445190071*6A\$GPGSV,3,3,12,24,02,241,43,131,33,221,-0,12,60,267,37,17,22,109,38*56
\c:1494445190105*68\$GPZDA,234211.00,07,06,2017,00,00*64
\c:1494445190106*6B\$GPGGA,234211,4157.7382,N,08736.1865,W,1,09,0.89,174.03,M,-34.239,M,,*75
\c:1494445190106*6B\$GPRMC,234211,A,4157.7382,N,08736.1865,W,4.4853,32.418,070617,,*04
\c:1494445190106*6B\$GPGSA,A,3,00,00,00,00,00,00,00,00,00,,,,1.5,0.9,1.2*3C
\c:1494445191071*6B\$GPGSV,3,1,12,02,68,283,40,06,55,048,41,23,08,051,-0,19,40,101,-0*77
\c:1494445191071*6B\$GPGSV,3,2,12,09,14,082,39,138,38,209,-0,25,28,313,46,05,29,192,42*5C
\c:1494445191072*68\$GPGSV,3,3,12,24,02,241,43,131,33,221,-0,12,60,267,37,17,22,109,38*56
\c:1494445191093*67\$GPZDA,234212.00,07,06,2017,00,00*67
\c:1494445191094*60\$GPGGA,234212,4157.7392,N,08736.1854,W,1,09,0.89,174.25,M,-34.239,M,,*71
\c:1494445191094*60\$GPRMC,234212,A,4157.7392,N,08736.1854,W,4.2245,34.171,070617,,*03
\c:1494445191094*60\$GPGSA,A,3,00,00,00,00,00,00,00,00,00,,,,1.5,0.9,1.2*3C
\c:1494445192071*68\$GPGSV,3,1,12,02,68,283,41,06,55,048,41,23,08,050,-0,19,40,101,36*6F
\c:1494445192072*6B\$GPGSV,3,2,12,09,14,082,39,138,38,209,-0,25,28,313,45,05,29,192,42*5F
\c:1494445192072*6B\$GPGSV,3,3,12,24,02,241,43,131,33,221,-0,12,60,267,37,17,22,109,37*59
\c:1494445192104*6B\$GPZDA,234213.00,07,06,2017,00,00*66
\c:1494445192104*6B\$GPGGA,234213,4157.7403,N,08736.1845,W,1,09,0.89,174.14,M,-34.239,M,,*7D
\c:1494445192104*6B\$GPRMC,234213,A,4157.7403,N,08736.1845,W,4.3068,32.165,070617,,*02
\c:1494445192104*6B\$GPGSA,A,3,00,00,00,00,00,00,00,00,00,,,,1.5,0.9,1.2*3C
\c:1494445193071*69\$GPGSV,3,1,12,02,68,283,40,06,55,048,41,23,08,050,-0,19,40,101,36*6E
\c:1494445193071*69\$GPGSV,3,2,12,09,14,082,39,138,38,209,-0,25,28,313,44,05,29,192,42*5E
\c:1494445193071*69\$GPGSV,3,3,12,24,02,241,43,131,33,221,-0,12,60,267,36,17,22,109,36*59
\c:1494445193105*6B\$GPZDA,234214.00,07,06,2017,00,00*61
\c:1494445193105*6B\$GPGGA,234214,4157.7414,N,08736.1834,W,1,09,0.89,174.18,M,-34.239,M,,*76
\c:1494445193105*6B\$GPRMC,234214,A,4157.7414,N,08736.1834,W,4.3882,32.218,070617,,*00
\c:1494445193105*6B\$GPGSA,A,3,00,00,00,00,00,00,00,00,00,,,,1.5,0.9,1.2*3C
\c:1494445194072*6D\$GPGSV,3,1,12,02,68,283,39,06,55,048,41,23,08,050,-0,19,40,101,35*63
\c:1494445194072*6D\$GPGSV,3,2,12,09,14,082,38,138,38,209,-0,25,28,313,44,05,29,192,40*5D
\c:1494445194072*6D\$GPGSV,3,3,12,24,02,241,43,131,33,221,-0,12,60,267,39,17,22,109,36*56
\c:1494445194096*67\$GPZDA,234215.00,07,06,2017,00,00*60
\c:1494445194096*67\$GPGGA,234215,4157.7426,N,08736.1825,W,1,09,0.89,174.42,M,-34.239,M,,*79
\c:1494445194096*67\$GPRMC,234215,A,4157.7426,N,08736.1825,W,4.6732,30.951,070617,,*05
\c:1494445194096*67\$GPGSA,A,3,00,00,00,00,00,00,00,00,00,,,,1.5,0.9,1.2*3C
\c:1494445195072*6C\$GPGSV,3,1,12,02,68,283,39,06,55,048,41,23,08,050,-0,19,40,101,35*63
\c:1494445195072*6C\$GPGSV,3,2,12,09,14,082,38,138,38,209,43,25,28,313,45,05,29,192,41*47
\c:1494445195072*6C\$GPGSV,3,3,12,24,02,241,43,131,33,221,-0,12,60,267,38,17,22,109,-0*4F
\c:1494445195094*64\$GPZDA,234216.00,07,06,2017,00,00*63
\c:1494445195094*64\$GPGGA,234216,4157.7436,N,08736.1816,W,1,09,0.89,175.10,M,-34.239,M,,*7D
\c:1494445195094*64\$GPRMC,234216,A,4157.7436,N,08736.1816,W,4.5229,31.447,070617,,*00
\c:1494445195094*64\$GPGSA,A,3,00,00,00,00,00,00,00,00,00,,,,1.5,0.9,1.2*3C
\c:1494445196073*6E\$GPGSV,3,1,12,02,68,283,38,06,55,048,42,23,08,050,-0,19,40,101,35*61
\c:1494445196074*69\$GPGSV,3,2,12,09,14,082,40,138,38,209,43,25,28,313,44,05,29,192,39*46
\c:1494445196074*69\$GPGSV,3,3,12,24,02,240,43,131,33,221,39,12,60,267,38,17,22,109,-0*59
\c:1494445196107*6C\$GPZDA,234217.00,07,06,2017,00,00*62
\c:1494445196107*6C\$GPGGA,234217,4157.7448,N,08736.1808,W,1,09,0.89,175.69,M,-34.239,M,,*74
\c:1494445196107*6C\$GPRMC,234217,A,4157.7448,N,08736.1808,W,4.6376,31.250,070617,,*0F
\c:1494445196108*63\$GPGSA,A,3,00,00,00,00,00,00,00,00,00,,,,1.5,0.9,1.2*3C
\c:1494445197071*6D\$GPGSV,3,1,12,02,68,283,39,06,55,048,43,23,08,050,-0,19,40,101,-0*7A
\c:1494445197071*6D\$GPGSV,3,2,12,09,14,082,40,138,38,209,-0,25,28,313,44,05,29,192,39*5C
\c:1494445197071*6D\$GPGSV,3,3,12,24,02,240,43,131,33,221,38,12,60,267,40,17,22,109,-0*57
\c:1494445197100*6A\$GPZDA,234218.00,07,06,2017,00,00*6D
\c:1494445197100*6A\$GPGGA,234218,4157.7459,N,08736.1799,W,1,09,0.89,175.67,M,-34.239,M,,*72
\c:1494445197100*6A\$GPRMC,234218,A,4157.7459,N,08736.1799,W,4.4632,30.782,070617,,*0B
\c:1494445197100*6A\$GPGSA,A,3,00,00,00,00,00,00,00,00,00,,,,1.5,0.9,1.2*3C
\c:1494445198072*61\$GPGSV,3,1,12,02,68,283,38,06,55,048,43,23,08,050,-0,19,40,101,-0*7B
\c:1494445198072*61\$GPGSV,3,2,12,09,14,082,40,138,38,209,-0,25,28,313,45,05,29,192,39*5D
\c:1494445198072*61\$GPGSV,3,3,12,24,02,240,43,131,33,221,40,12,60,267,42,17,22,109,40*43
\c:1494445198104*61\$GPZDA,234219.00,07,06,2017,00,00*6C
\c:1494445198104*61\$GPGGA,234219,4157.7472,N,08736.1789,W,1,09,0.89,175.73,M,-34.239,M,,*7E
\c:1494445198105*60\$GPRMC,234219,A,4157.7472,N,08736.1789,W,4.7064,31.316,070617,,*0C
\c:1494445198105*60\$GPGSA,A,3,00,00,00,00,00,00,00,00,00,,,,1.5,0.9,1.2*3C
\c:1494445199071*63\$GPGSV,3,1,12,02,68,283,-0,06,55,048,42,23,08,050,-0,19,40,101,37*75
\c:1494445199071*63\$GPGSV,3,2,12,09,14,082,40,138,38,209,-0,25,29,312,45,05,29,192,38*5C
\c:1494445199071*63\$GPGSV,3,3,12,24,02,240,43,131,33,221,39,12,60,267,42,17,22,109,40*4D
\c:1494445199098*64\$GPZDA,234220.00,07,06,2017,00,00*66
\c:1494445199098*64\$GPGGA,234220,4157.7485,N,08736.1779,W,1,09,0.90,175.65,M,-34.239,M,,*7C
\c:1494445199098*64\$GPRMC,234220,A,4157.7485,N,08736.1779,W,4.8699,31.756,070617,,*0A
\c:1494445199099*65\$GPGSA,A,3,00,00,00,00,00,00,00,00,00,,,,1.5,0.9,1.2*3C
\c:1494445200071*60\$GPGSV,3,1,12,02,68,283,34,06,55,048,43,23,08,050,-0,19,40,101,36*6F
\c:1494445200071*60\$GPGSV,3,2,12,09,14,082,39,138,38,209,-0,25,29,312,45,05,29,192,39*53
\c:1494445200071*60\$GPGSV,3,3,12,24,02,240,43,131,33,221,39,12,60,267,41,17,22,109,-0*57
\c:1494445200099*66\$GPZDA,234221.00,07,06,2017,00,00*67
\c:1494445200100*67\$GPGGA,234221,4157.7497,N,08736.1769,W,1,09,0.90,175.02,M,-34.239,M,,*7E
\c:1494445200100*67\$GPRMC,234221,A,4157.7497,N,08736.1769,W,4.7546,31.726,070617,,*00
\c:1494445200100*67\$GPGSA,A,3,00,00,00,00,00,00,00,00,00,,,,1.5,0.9,1.2*3C
\c:1494445201071*61\$GPGSV,3,1,12,02,68,283,35,06,55,048,43,23,08,050,-0,19,40,101,36*6E
\c:1494445201072*62\$GPGSV,3,2,12,09,14,082,40,138,38,209,-0,25,29,312,45,05,29,192,39*5D
\c:1494445201072*62\$GPGSV,3,3,12,24,02,240,42,131,33,221,38,12,60,267,-0,17,22,109,-0*4F
\c:1494445201094*6A\$GPZDA,234222.00,07,06,2017,00,00*64
\c:1494445201094*6A\$GPGGA,234222,4157.7509,N,08736.1760,W,1,09,0.90,174.91,M,-34.239,M,,*79
\c:1494445201094*6A\$GPRMC,234222,A,4157.7509,N,08736.1760,W,4.6449,30.992,070617,,*03
\c:1494445201094*6A\$GPGSA,A,3,00,00,00,00,00,00,00,00,00,,,,1.5,0.9,1.2*3C
\c:1494445202071*62\$GPGSV,3,1,12,02,68,283,37,06,55,048,42,23,08,050,-0,19,40,101,-0*75
\c:1494445202072*61\$GPGSV,3,2,12,09,14,082,39,138,38,209,-0,25,29,312,45,05,29,192,38*52
\c:1494445202072*61\$GPGSV,3,3,12,24,02,240,42,131,33,221,-0,12,60,267,40,17,22,109,-0*40
\c:1494445202104*61\$GPZDA,234223.00,07,06,2017,00,00*65
\c:1494445202104*61\$GPGGA,234223,4157.7520,N,08736.1749,W,1,09,0.90,174.86,M,-34.239,M,,*7E
\c:1494445202104*61\$GPRMC,234223,A,4157.7520,N,08736.1749,W,4.5903,32.465,070617,,*05
\c:1494445202104*61\$GPGSA,A,3,00,00,00,00,00,00,00,00,00,,,,1.5,0.9,1.2*3C
\c:1494445203073*61\$GPGSV,3,1,12,02,68,283,37,06,55,048,42,23,08,050,-0,19,40,101,-0*75
\c:1494445203073*61\$GPGSV,3,2,12,09,14,082,39,138,38,209,40,25,29,312,45,05,29,192,38*4B
\c:1494445203073*61\$GPGSV,3,3,12,24,02,240,42,131,33,221,41,12,60,267,40,17,22,109,-0*58
\c:1494445203102*66\$GPZDA,234224.00,07,06,2017,00,00*62
\c:1494445203102*66\$GPGGA,234224,4157.7533,N,08736.1740,W,1,09,0.90,175.17,M,-34.239,M,,*7B
\c:1494445203102*66\$GPRMC,234224,A,4157.7533,N,08736.1740,W,4.5903,32.465,070617,,*09
\c:1494445203102*66\$GPGSA,A,3,00,00,00,00,00,00,00,00,00,,,,1.5,0.9,1.2*3C
\c:1494445204072*67\$GPGSV,3,1,12,02,68,283,37,06,55,048,41,23,08,050,-0,19,40,101,35*6D
\c:1494445204072*67\$GPGSV,3,2,12,09,14,082,38,138,38,209,41,25,29,312,45,05,29,192,39*4A
\c:1494445204072*67\$GPGSV,3,3,12,24,02,240,42,131,33,221,-0,12,60,267,39,17,22,109,-0*4E
\c:1494445204106*65\$GPZDA,234225.00,07,06,2017,00,00*63
\c:1494445204106*65\$GPGGA,234225,4157.7544,N,08736.1731,W,1,09,0.90,175.32,M,-34.239,M,,*7B
\c:1494445204106*65\$GPRMC,234225,A,4157.7544,N,08736.1731,W,4.5903,32.465,070617,,*0E
\c:1494445204106*65\$GPGSA,A,3,00,00,00,00,00,00,00,00,00,,,,1.5,0.9,1.2*3C
\c:1494445205072*66\$GPGSV,3,1,12,02,68,283,37,06,55,048,41,23,08,050,-0,19,40,101,35*6D
\c:1494445205072*66\$GPGSV,3,2,12,09,14,082,39,138,38,209,40,25,29,312,45,05,29,192,39*4A
\c:1494445205072*66\$GPGSV,3,3,12,24,02,240,42,131,33,221,-0,12,60,267,38,17,22,109,-0*4F
\c:1494445205098*62\$GPZDA,234226.00,07,06,2017,00,00*60
\c:1494445205098*62\$GPGGA,234226,4157.7554,N,08736.1723,W,1,09,0.90,175.23,M,-34.239,M,,*7A
\c:1494445205098*62\$GPRMC,234226,A,4157.7554,N,08736.1723,W,4.3007,31.818,070617,,*01
\c:1494445205098*62\$GPGSA,A,3,00,00,00,00,00,00,00,00,00,,,,1.5,0.9,1.2*3C
\c:1494445206071*66\$GPGSV,3,1,12,02,68,283,36,06,55,048,40,23,08,050,-0,19,40,101,35*6D
\c:1494445206072*65\$GPGSV,3,2,12,09,14,082,39,138,38,209,39,25,29,312,45,05,29,192,39*44
\c:1494445206072*65\$GPGSV,3,3,12,24,02,240,42,131,33,221,-0,12,60,267,40,17,22,109,-0*40
\c:1494445206096*6F\$GPZDA,234227.00,07,06,2017,00,00*61
\c:1494445206096*6F\$GPGGA,234227,4157.7564,N,08736.1715,W,1,09,0.90,175.12,M,-34.239,M,,*7F
\c:1494445206096*6F\$GPRMC,234227,A,4157.7564,N,08736.1715,W,4.3007,31.818,070617,,*06
\c:1494445206096*6F\$GPGSA,A,3,00,00,00,00,00,00,00,00,00,,,,1.5,0.9,1.2*3C
\c:1494445207071*67\$GPGSV,3,1,12,02,68,283,38,06,55,048,39,23,08,050,-0,19,40,101,34*6C
\c:1494445207071*67\$GPGSV,3,2,12,09,14,082,40,138,38,209,-0,25,29,312,46,05,29,192,40*50
\c:1494445207071*67\$GPGSV,3,3,12,24,02,240,42,131,33,221,-0,12,60,267,39,17,22,109,-0*4E
\c:1494445207097*6F\$GPZDA,234228.00,07,06,2017,00,00*6E
\c:1494445207097*6F\$GPGGA,234228,4157.7575,N,08736.1705,W,1,09,0.90,175.30,M,-34.239,M,,*71
\c:1494445207097*6F\$GPRMC,234228,A,4157.7575,N,08736.1705,W,4.6760,31.041,070617,,*0F
\c:1494445207097*6F\$GPGSA,A,3,00,00,00,00,00,00,00,00,00,,,,1.5,0.9,1.2*3C
\c:1494445208071*68\$GPGSV,3,1,12,02,68,283,38,06,55,048,39,23,08,050,-0,19,40,101,34*6C
\c:1494445208071*68\$GPGSV,3,2,12,09,14,082,39,138,38,209,-0,25,29,312,46,05,29,192,40*5E
\c:1494445208071*68\$GPGSV,3,3,12,24,02,240,41,131,33,221,-0,12,60,267,38,17,22,109,-0*4C
\c:1494445208099*6E\$GPZDA,234229.00,07,06,2017,00,00*6F
\c:1494445208099*6E\$GPGGA,234229,4157.7586,N,08736.1696,W,1,08,0.99,175.40,M,-34.239,M,,*78
\c:1494445208099*6E\$GPRMC,234229,A,4157.7586,N,08736.1696,W,4.6760,31.041,070617,,*09
\c:1494445208100*6F\$GPGSA,A,3,00,00,00,00,00,00,00,00,,,,,1.9,1.0,1.6*3C
\c:1494445209071*69\$GPGSV,3,1,12,02,68,283,38,06,55,048,39,23,08,050,-0,19,40,101,-0*76
\c:1494445209071*69\$GPGSV,3,2,12,09,14,082,39,138,38,209,-0,25,29,312,47,05,29,192,41*5E
\c:1494445209071*69\$GPGSV,3,3,12,24,02,240,41,131,33,221,-0,12,60,267,37,17,22,109,-0*43
\c:1494445209091*67\$GPZDA,234230.00,07,06,2017,00,00*67
\c:1494445209091*67\$GPGGA,234230,4157.7596,N,08736.1687,W,1,08,0.99,175.17,M,-34.239,M,,*73
\c:1494445209091*67\$GPRMC,234230,A,4157.7596,N,08736.1687,W,4.6600,35.285,070617,,*09
\c:1494445209092*64\$GPGSA,A,3,00,00,00,00,00,00,00,00,,,,,1.9,1.0,1.6*3C
\c:1494445210071*61\$GPGSV,3,1,12,02,68,283,37,06,55,048,38,23,08,050,-0,19,40,101,35*63
\c:1494445210072*62\$GPGSV,3,2,12,09,14,082,37,138,38,209,-0,25,29,312,47,05,29,192,41*50
\c:1494445210072*62\$GPGSV,3,3,12,24,02,240,40,131,33,221,-0,12,60,267,36,17,22,109,35*58
\c:1494445210096*68\$GPZDA,234231.00,07,06,2017,00,00*66
\c:1494445210097*69\$GPGGA,234231,4157.7605,N,08736.1679,W,1,08,0.99,174.36,M,-34.239,M,,*78
\c:1494445210097*69\$GPRMC,234231,A,4157.7605,N,08736.1679,W,4.6600,35.285,070617,,*00
\c:1494445210097*69\$GPGSA,A,3,00,00,00,00,00,00,00,00,,,,,1.9,1.0,1.6*3C
\c:1494445211071*60\$GPGSV,3,1,12,02,68,283,38,06,55,048,40,23,08,050,-0,19,40,101,35*63
\c:1494445211072*63\$GPGSV,3,2,12,09,14,082,37,138,38,209,-0,25,29,312,47,05,29,192,41*50
\c:1494445211072*63\$GPGSV,3,3,12,24,02,240,40,131,33,221,-0,12,60,267,-0,17,22,109,34*41
\c:1494445212072*60\$GPGSV,3,1,12,02,68,283,38,06,55,048,39,23,08,050,-0,19,40,101,-0*76
\c:1494445212073*61\$GPGSV,3,2,12,09,14,082,-0,138,38,209,-0,25,29,312,48,05,29,192,41*46
\c:1494445212073*61\$GPGSV,3,3,12,24,02,240,-0,131,33,221,-0,12,60,267,-0,17,22,109,34*58
\c:1494445213072*61\$GPGSV,3,1,12,02,68,283,40,06,55,048,38,23,08,050,-0,19,40,101,32*64
\c:1494445213072*61\$GPGSV,3,2,12,09,14,082,-0,138,38,209,-0,25,29,312,48,05,29,192,39*49
\c:1494445213072*61\$GPGSV,3,3,12,24,02,240,-0,131,33,221,-0,12,60,267,37,17,22,109,34*41
\c:1494445214074*60\$GPGSV,3,1,12,02,68,283,41,06,55,048,38,23,08,050,-0,19,40,101,32*65
\c:1494445214075*61\$GPGSV,3,2,12,09,14,082,34,138,38,209,-0,25,29,312,48,05,29,192,38*52
\c:1494445214075*61\$GPGSV,3,3,12,24,02,240,-0,131,33,221,-0,12,60,267,36,17,22,109,34*40
\c:1494445215072*67\$GPGSV,3,1,12,02,68,283,42,06,55,048,40,23,08,050,-0,19,40,101,33*68
\c:1494445215073*66\$GPGSV,3,2,12,09,14,082,33,138,38,209,-0,25,29,312,48,05,29,192,-0*43
\c:1494445215073*66\$GPGSV,3,3,12,24,02,240,-0,131,33,221,-0,12,60,267,36,17,22,109,34*40
\c:1494445216071*67\$GPGSV,3,1,12,02,68,283,41,06,55,048,41,23,08,050,-0,19,40,101,34*6D
\c:1494445216072*64\$GPGSV,3,2,12,09,14,082,32,138,38,209,42,25,29,312,47,05,29,192,41*4E
\c:1494445216072*64\$GPGSV,3,3,12,24,02,240,40,131,33,221,-0,12,60,267,35,17,22,109,34*5A
\c:1494445217072*65\$GPGSV,3,1,12,02,68,283,41,06,55,048,41,23,08,050,-0,19,40,101,34*6D
\c:1494445217072*65\$GPGSV,3,2,12,09,14,082,34,138,38,209,-0,25,29,312,47,05,29,192,42*50
\c:1494445217072*65\$GPGSV,3,3,12,24,02,240,40,131,33,221,38,12,60,267,35,17,22,109,-0*56
\c:1494445217097*6E\$GPZDA,234238.00,07,06,2017,00,00*6F
\c:1494445217097*6E\$GPGGA,234238,4157.7688,N,08736.1607,W,1,00,,174.87,M,-34.239,M,,*61
\c:1494445217097*6E\$GPRMC,234238,A,4157.7688,N,08736.1607,W,4.7254,36.201,070617,,*0E
\c:1494445217097*6E\$GPGSA,A,2,,,,,,,,,,,,,0.0,0.0,0.0*33
\c:1494445218072*6A\$GPGSV,3,1,12,02,68,283,41,06,55,048,40,23,08,050,-0,19,40,101,34*6C
\c:1494445218072*6A\$GPGSV,3,2,12,09,14,082,37,138,38,209,-0,25,29,312,47,05,29,192,42*53
\c:1494445218072*6A\$GPGSV,3,3,12,24,02,240,39,131,33,221,-0,12,60,267,36,17,22,109,-0*4D
\c:1494445218096*60\$GPZDA,234239.00,07,06,2017,00,00*6E
\c:1494445218096*60\$GPGGA,234239,4157.7700,N,08736.1596,W,1,09,0.90,174.93,M,-34.239,M,,*71
\c:1494445218097*61\$GPRMC,234239,A,4157.7700,N,08736.1596,W,4.8647,30.673,070617,,*0B
\c:1494445218097*61\$GPGSA,A,2,00,00,00,00,00,00,00,00,00,,,,1.5,0.9,1.2*3D
\c:1494445219071*68\$GPGSV,3,1,12,02,68,283,40,06,55,048,39,23,08,050,-0,19,40,101,-0*79
\c:1494445219071*68\$GPGSV,3,2,12,09,14,082,37,138,38,209,-0,25,29,312,47,05,29,192,42*53
\c:1494445219071*68\$GPGSV,3,3,12,24,02,240,39,131,33,221,-0,12,60,267,37,17,22,109,-0*4C
\c:1494445219101*6E\$GPZDA,234240.00,07,06,2017,00,00*60
\c:1494445219101*6E\$GPGGA,234240,4157.7709,N,08736.1586,W,1,09,0.90,175.09,M,-34.239,M,,*75
\c:1494445219102*6D\$GPRMC,234240,A,4157.7709,N,08736.1586,W,4.3684,35.851,070617,,*02
\c:1494445219102*6D\$GPGSA,A,2,00,00,00,00,00,00,00,00,00,,,,1.5,0.9,1.2*3D
\c:1494445220071*62\$GPGSV,3,1,12,02,68,283,40,06,55,048,41,23,08,050,-0,19,40,101,38*60
\c:1494445220072*61\$GPGSV,3,2,12,09,14,082,37,138,38,209,40,25,29,312,47,05,29,192,42*4A
\c:1494445220072*61\$GPGSV,3,3,12,24,02,240,39,131,33,221,-0,12,60,267,37,17,22,109,-0*4C
\c:1494445220106*63\$GPZDA,234241.00,07,06,2017,00,00*61
\c:1494445220106*63\$GPGGA,234241,4157.7721,N,08736.1577,W,1,09,0.90,175.09,M,-34.239,M,,*70
\c:1494445220106*63\$GPRMC,234241,A,4157.7721,N,08736.1577,W,4.7972,30.447,070617,,*0B
\c:1494445220106*63\$GPGSA,A,3,00,00,00,00,00,00,00,00,00,,,,1.5,0.9,1.2*3C
\c:1494445221071*63\$GPGSV,3,1,12,02,68,283,40,06,55,048,41,23,08,050,-0,19,40,101,37*6F
\c:1494445221072*60\$GPGSV,3,2,12,09,14,082,36,138,38,209,39,25,29,312,46,05,29,192,42*44
\c:1494445221072*60\$GPGSV,3,3,12,24,02,240,38,131,33,221,-0,12,60,267,36,17,22,109,-0*4C
\c:1494445221101*65\$GPZDA,234242.00,07,06,2017,00,00*62
\c:1494445221102*66\$GPGGA,234242,4157.7732,N,08736.1569,W,1,09,0.90,175.47,M,-34.239,M,,*74
\c:1494445221102*66\$GPRMC,234242,A,4157.7732,N,08736.1569,W,4.7972,30.447,070617,,*05
\c:1494445221102*66\$GPGSA,A,3,00,00,00,00,00,00,00,00,00,,,,1.5,0.9,1.2*3C
\c:1494445222072*63\$GPGSV,3,1,12,02,68,283,41,06,55,048,40,23,08,050,-0,19,40,101,35*6D
\c:1494445222072*63\$GPGSV,3,2,12,09,14,082,-0,138,38,209,-0,25,29,312,46,05,29,192,41*48
\c:1494445222072*63\$GPGSV,3,3,12,24,02,240,39,131,33,221,-0,12,60,267,36,17,22,109,-0*4D
\c:1494445222097*68\$GPZDA,234243.00,07,06,2017,00,00*63
\c:1494445222097*68\$GPGGA,234243,4157.7743,N,08736.1560,W,1,09,0.90,175.41,M,-34.239,M,,*7C
\c:1494445222097*68\$GPRMC,234243,A,4157.7743,N,08736.1560,W,4.7972,30.447,070617,,*0B
\c:1494445222097*68\$GPGSA,A,3,00,00,00,00,00,00,00,00,00,,,,1.5,0.9,1.2*3C
\c:1494445223072*62\$GPGSV,3,1,12,02,68,283,41,06,55,048,41,23,08,050,-0,19,40,101,35*6C
\c:1494445223072*62\$GPGSV,3,2,12,09,14,082,-0,138,38,209,38,25,29,312,46,05,29,192,42*5D
\c:1494445223072*62\$GPGSV,3,3,12,24,02,240,40,131,33,221,-0,12,60,267,35,17,22,109,-0*40
\c:1494445223091*6F\$GPZDA,234244.00,07,06,2017,00,00*64
\c:1494445223091*6F\$GPGGA,234244,4157.7754,N,08736.1546,W,1,09,0.90,174.99,M,-34.239,M,,*7D
\c:1494445223091*6F\$GPRMC,234244,A,4157.7754,N,08736.1546,W,4.7777,35.784,070617,,*0C
\c:1494445223091*6F\$GPGSA,A,3,00,00,00,00,00,00,00,00,00,,,,1.5,0.9,1.2*3C
\c:1494445224071*66\$GPGSV,3,1,12,02,68,283,40,06,55,048,41,23,08,050,-0,19,40,101,35*6D
\c:1494445224072*65\$GPGSV,3,2,12,09,14,082,-0,138,38,209,37,25,29,312,46,05,29,192,40*50
\c:1494445224072*65\$GPGSV,3,3,12,24,02,240,39,131,33,221,-0,12,60,267,36,17,22,109,-0*4D
\c:1494445224099*60\$GPZDA,234245.00,07,06,2017,00,00*65
\c:1494445224099*60\$GPGGA,234245,4157.7766,N,08736.1537,W,1,09,0.90,175.45,M,-34.239,M,,*7B
\c:1494445224099*60\$GPRMC,234245,A,4157.7766,N,08736.1537,W,4.7777,35.784,070617,,*0A
\c:1494445224099*60\$GPGSA,A,3,00,00,00,00,00,00,00,00,00,,,,1.5,0.9,1.2*3C
\c:1494445225071*67\$GPGSV,3,1,12,02,68,283,40,06,55,048,41,23,08,050,-0,19,40,101,35*6D
\c:1494445225071*67\$GPGSV,3,2,12,09,14,082,-0,138,38,209,38,25,29,312,46,05,29,192,40*5F
\c:1494445225071*67\$GPGSV,3,3,12,24,02,240,38,131,33,221,-0,12,60,267,36,17,22,109,30*52
\c:1494445225102*62\$GPZDA,234246.00,07,06,2017,00,00*66
\c:1494445225102*62\$GPGGA,234246,4157.7777,N,08736.1527,W,1,08,0.99,175.79,M,-34.239,M,,*7E
\c:1494445225102*62\$GPRMC,234246,A,4157.7777,N,08736.1527,W,4.7777,35.784,070617,,*08
\c:1494445225102*62\$GPGSA,A,3,00,00,00,00,00,00,00,00,,,,,1.9,1.0,1.6*3C
\c:1494445226072*67\$GPGSV,3,1,12,02,68,283,41,06,55,048,40,23,08,050,-0,19,40,101,37*6F
\c:1494445226072*67\$GPGSV,3,2,12,09,14,082,-0,138,38,209,37,25,29,312,46,05,29,192,39*5E
\c:1494445226072*67\$GPGSV,3,3,12,24,02,240,37,131,33,221,-0,12,60,267,37,17,22,109,-0*42
\c:1494445226099*62\$GPZDA,234247.00,07,06,2017,00,00*67
\c:1494445226099*62\$GPGGA,234247,4157.7788,N,08736.1517,W,1,09,0.90,175.45,M,-34.239,M,,*7B
\c:1494445226099*62\$GPRMC,234247,A,4157.7788,N,08736.1517,W,4.7777,35.784,070617,,*0A
\c:1494445226099*62\$GPGSA,A,3,00,00,00,00,00,00,00,00,00,,,,1.5,0.9,1.2*3C
\c:1494445227072*66\$GPGSV,3,1,12,02,68,283,41,06,55,048,41,23,08,050,-0,19,40,101,36*6F
\c:1494445227072*66\$GPGSV,3,2,12,09,14,082,-0,138,38,209,-0,25,29,312,46,05,29,192,38*46
\c:1494445227072*66\$GPGSV,3,3,12,24,02,240,36,131,33,221,-0,12,60,267,36,17,22,109,30*5C
\c:1494445227101*63\$GPZDA,234248.00,07,06,2017,00,00*68
\c:1494445227101*63\$GPGGA,234248,4157.7802,N,08736.1505,W,1,09,0.90,175.73,M,-34.239,M,,*7F
\c:1494445227101*63\$GPRMC,234248,A,4157.7802,N,08736.1505,W,4.7777,35.784,070617,,*0B
\c:1494445227102*60\$GPGSA,A,3,00,00,00,00,00,00,00,00,00,,,,1.5,0.9,1.2*3C
\c:1494445228072*69\$GPGSV,3,1,12,02,68,283,42,06,55,048,41,23,08,050,-0,19,40,101,36*6C
\c:1494445228072*69\$GPGSV,3,2,12,09,14,082,-0,138,38,209,-0,25,29,312,46,05,29,192,38*46
\c:1494445228072*69\$GPGSV,3,3,12,24,02,240,36,131,33,221,40,12,60,267,38,17,22,109,-0*55
\c:1494445228099*6C\$GPZDA,234249.00,07,06,2017,00,00*69
\c:1494445228099*6C\$GPGGA,234249,4157.7814,N,08736.1494,W,1,09,0.90,175.74,M,-34.239,M,,*77
\c:1494445228100*6D\$GPRMC,234249,A,4157.7814,N,08736.1494,W,4.7777,35.784,070617,,*04
\c:1494445229073*69\$GPGSV,3,1,12,02,68,283,42,06,55,048,42,23,08,050,-0,19,40,101,-0*77
\c:1494445228100*6D\$GPGSA,A,3,00,00,00,00,00,00,00,00,00,,,,1.5,0.9,1.2*3C
\c:1494445229074*6E\$GPGSV,3,2,12,09,14,082,38,138,38,209,-0,25,29,312,47,05,29,192,38*51
\c:1494445229074*6E\$GPGSV,3,3,12,24,02,240,35,131,33,221,42,12,60,267,37,17,22,109,35*40
\c:1494445229103*6F\$GPZDA,234250.00,07,06,2017,00,00*61
\c:1494445229104*68\$GPGGA,234250,4157.7824,N,08736.1481,W,1,09,0.90,176.20,M,-34.239,M,,*7A
\c:1494445229104*68\$GPRMC,234250,A,4157.7824,N,08736.1481,W,4.9485,43.481,070617,,*0C
\c:1494445229104*68\$GPGSA,A,3,00,00,00,00,00,00,00,00,00,,,,1.5,0.9,1.2*3C
\c:1494445230072*60\$GPGSV,3,1,12,02,68,283,42,06,55,048,42,23,08,050,-0,19,40,101,-0*77
\c:1494445230073*61\$GPGSV,3,2,12,09,14,082,38,138,38,209,-0,25,29,312,47,05,29,192,38*51
\c:1494445230073*61\$GPGSV,3,3,12,24,02,240,-0,131,33,221,-0,12,60,267,36,17,22,109,34*40
\c:1494445230098*64\$GPZDA,234251.00,07,06,2017,00,00*60
\c:1494445230099*65\$GPGGA,234251,4157.7836,N,08736.1467,W,1,09,0.90,176.33,M,-34.239,M,,*72
\c:1494445230099*65\$GPRMC,234251,A,4157.7836,N,08736.1467,W,4.9485,43.481,070617,,*06
\c:1494445230099*65\$GPGSA,A,3,00,00,00,00,00,00,00,00,00,,,,1.5,0.9,1.2*3C
\c:1494445231071*62\$GPGSV,3,1,12,02,68,283,42,06,55,048,41,23,08,050,-0,19,40,101,31*6B
\c:1494445231072*61\$GPGSV,3,2,12,09,14,082,37,138,38,209,-0,25,29,312,47,05,29,192,37*51
\c:1494445231072*61\$GPGSV,3,3,12,24,02,240,37,131,33,221,-0,12,60,267,40,17,22,109,-0*42
\c:1494445231097*6A\$GPZDA,234252.00,07,06,2017,00,00*63
\c:1494445231097*6A\$GPGGA,234252,4157.7849,N,08736.1454,W,1,09,0.90,176.65,M,-34.239,M,,*7A
\c:1494445231097*6A\$GPRMC,234252,A,4157.7849,N,08736.1454,W,4.9485,43.481,070617,,*0D
\c:1494445231097*6A\$GPGSA,A,3,00,00,00,00,00,00,00,00,00,,,,1.5,0.9,1.2*3C
\c:1494445232072*62\$GPGSV,3,1,12,02,68,283,42,06,55,048,40,23,08,050,-0,19,40,101,31*6A
\c:1494445232072*62\$GPGSV,3,2,12,09,14,082,-0,138,38,209,-0,25,29,312,47,05,29,192,-0*51
\c:1494445232072*62\$GPGSV,3,3,12,24,02,240,37,131,33,221,-0,12,60,267,40,17,22,109,-0*42
\c:1494445232080*6F\$GPZDA,234253.00,07,06,2017,00,00*62
\c:1494445232080*6F\$GPGGA,234253,4157.7859,N,08736.1442,W,1,09,0.90,176.62,M,-34.239,M,,*7A
\c:1494445232080*6F\$GPRMC,234253,A,4157.7859,N,08736.1442,W,4.9485,43.481,070617,,*0A
\c:1494445232080*6F\$GPGSA,A,3,00,00,00,00,00,00,00,00,00,,,,1.5,0.9,1.2*3C
\c:1494445233072*63\$GPGSV,3,1,12,02,68,285,42,06,55,048,40,23,08,050,-0,19,40,101,-0*73
\c:1494445233072*63\$GPGSV,3,2,12,09,14,082,-0,138,38,209,-0,25,29,312,47,05,29,192,-0*51
\c:1494445233072*63\$GPGSV,3,3,12,24,02,240,36,131,33,221,-0,12,60,267,38,17,22,109,-0*4C
\c:1494445233091*6E\$GPZDA,234254.00,07,06,2017,00,00*65
\c:1494445233091*6E\$GPGGA,234254,4157.7872,N,08736.1426,W,1,09,0.90,176.60,M,-34.239,M,,*74
\c:1494445233091*6E\$GPRMC,234254,A,4157.7872,N,08736.1426,W,4.9485,43.481,070617,,*06
\c:1494445233091*6E\$GPGSA,A,3,00,00,00,00,00,00,00,00,00,,,,1.5,0.9,1.2*3C
\c:1494445234072*64\$GPGSV,3,1,12,02,68,285,42,06,55,048,40,23,08,050,-0,19,40,101,-0*73
\c:1494445234072*64\$GPGSV,3,2,12,09,14,082,-0,138,38,209,-0,25,29,312,47,05,29,192,-0*51
\c:1494445234072*64\$GPGSV,3,3,12,24,02,240,36,131,33,221,-0,12,60,267,41,17,22,109,-0*42
\c:1494445234106*66\$GPZDA,234255.00,07,06,2017,00,00*64
\c:1494445234106*66\$GPGGA,234255,4157.7884,N,08736.1412,W,1,09,0.90,176.56,M,-34.239,M,,*7E
\c:1494445234106*66\$GPRMC,234255,A,4157.7884,N,08736.1412,W,4.9485,43.481,070617,,*09
\c:1494445234106*66\$GPGSA,A,3,00,00,00,00,00,00,00,00,00,,,,1.5,0.9,1.2*3C
\c:1494445235073*64\$GPGSV,3,1,12,02,68,285,41,06,55,048,40,23,08,050,-0,19,40,101,-0*70
\c:1494445235073*64\$GPGSV,3,2,12,09,14,082,-0,138,38,209,40,25,29,312,47,05,29,192,-0*48
\c:1494445235073*64\$GPGSV,3,3,12,24,02,240,-0,131,33,221,-0,12,60,267,40,17,22,109,-0*5B
\c:1494445235100*61\$GPZDA,234256.00,07,06,2017,00,00*67
\c:1494445235100*61\$GPGGA,234256,4157.7897,N,08736.1398,W,1,09,0.90,176.55,M,-34.239,M,,*79
\c:1494445235100*61\$GPRMC,234256,A,4157.7897,N,08736.1398,W,4.9485,43.481,070617,,*0D
\c:1494445235100*61\$GPGSA,A,3,00,00,00,00,00,00,00,00,00,,,,1.5,0.9,1.2*3C
\c:1494445236073*67\$GPGSV,3,1,12,02,68,285,41,06,55,048,40,23,08,050,-0,19,40,101,-0*70
\c:1494445236073*67\$GPGSV,3,2,12,09,14,082,-0,138,38,209,-0,25,29,312,47,05,29,192,38*47
\c:1494445236074*60\$GPGSV,3,3,12,24,02,240,-0,131,33,221,-0,12,60,267,40,17,22,109,-0*5B
\c:1494445236091*6B\$GPZDA,234257.00,07,06,2017,00,00*66
\c:1494445236091*6B\$GPGGA,234257,4157.7907,N,08736.1383,W,1,09,0.90,176.30,M,-34.239,M,,*79
\c:1494445236091*6B\$GPRMC,234257,A,4157.7907,N,08736.1383,W,4.9485,43.481,070617,,*0E
\c:1494445236091*6B\$GPGSA,A,3,00,00,00,00,00,00,00,00,00,,,,1.5,0.9,1.2*3C
\c:1494445237071*64\$GPGSV,3,1,12,02,68,285,40,06,55,048,39,23,08,050,-0,19,40,101,-0*7F
\c:1494445237071*64\$GPGSV,3,2,12,09,14,082,-0,138,38,209,-0,25,29,312,46,05,29,192,37*49
\c:1494445237071*64\$GPGSV,3,3,12,24,02,240,-0,131,33,221,42,12,60,267,41,17,22,109,-0*41
\c:1494445237083*69\$GPZDA,234258.00,07,06,2017,00,00*69
\c:1494445237083*69\$GPGGA,234258,4157.7916,N,08736.1371,W,1,09,0.90,176.14,M,-34.239,M,,*7D
\c:1494445237084*6E\$GPRMC,234258,A,4157.7916,N,08736.1371,W,4.9485,43.481,070617,,*0C
\c:1494445237084*6E\$GPGSA,A,3,00,00,00,00,00,00,00,00,00,,,,1.5,0.9,1.2*3C
\c:1494445238071*6B\$GPGSV,3,1,12,02,68,285,41,06,55,048,40,23,08,050,-0,19,40,101,30*6E
\c:1494445238071*6B\$GPGSV,3,2,12,09,14,082,37,138,38,209,-0,25,29,312,46,05,29,192,37*50
\c:1494445238071*6B\$GPGSV,3,3,12,24,02,240,-0,131,33,221,41,12,60,267,41,17,22,109,36*5A
\c:1494445238106*6A\$GPZDA,234259.00,07,06,2017,00,00*68
\c:1494445238106*6A\$GPGGA,234259,4157.7926,N,08736.1359,W,1,09,0.90,175.88,M,-34.239,M,,*73
\c:1494445238107*6B\$GPRMC,234259,A,4157.7926,N,08736.1359,W,4.9485,43.481,070617,,*04
\c:1494445238107*6B\$GPGSA,A,3,00,00,00,00,00,00,00,00,00,,,,1.5,0.9,1.2*3C
\c:1494445239072*69\$GPGSV,3,1,12,02,68,285,42,06,55,048,42,23,08,050,-0,19,40,101,-0*71
\c:1494445239072*69\$GPGSV,3,2,12,09,14,082,36,138,38,209,-0,25,29,312,47,05,29,192,37*50
\c:1494445239073*68\$GPGSV,3,3,12,24,02,240,35,131,33,221,-0,12,60,267,40,17,22,109,35*5B
\c:1494445239095*60\$GPZDA,234300.00,07,06,2017,00,00*65
\c:1494445239096*63\$GPGGA,234300,4157.7936,N,08736.1346,W,1,09,0.90,175.26,M,-34.239,M,,*75
\c:1494445239096*63\$GPRMC,234300,A,4157.7936,N,08736.1346,W,4.9485,43.481,070617,,*06
\c:1494445239096*63\$GPGSA,A,3,00,00,00,00,00,00,00,00,00,,,,1.5,0.9,1.2*3C
\c:1494445240071*64\$GPGSV,3,1,12,02,68,285,42,06,55,048,40,23,08,050,-0,19,40,101,-0*73
\c:1494445240072*67\$GPGSV,3,2,12,09,14,082,36,138,38,209,-0,25,29,312,47,05,29,192,-0*49
\c:1494445240072*67\$GPGSV,3,3,12,24,02,240,34,131,33,221,-0,12,60,267,40,17,22,109,-0*41
\c:1494445240096*6D\$GPZDA,234301.00,07,06,2017,00,00*64
\c:1494445240096*6D\$GPGGA,234301,4157.7947,N,08736.1333,W,1,09,0.90,175.12,M,-34.239,M,,*77
\c:1494445240096*6D\$GPRMC,234301,A,4157.7947,N,08736.1333,W,4.9485,43.481,070617,,*03
\c:1494445240096*6D\$GPGSA,A,3,00,00,00,00,00,00,00,00,00,,,,1.5,0.9,1.2*3C
\c:1494445241071*65\$GPGSV,3,1,12,02,68,285,41,06,55,048,41,23,08,050,-0,19,40,101,-0*71
\c:1494445241071*65\$GPGSV,3,2,12,09,14,082,35,138,38,209,-0,25,29,312,47,05,29,192,-0*4A
\c:1494445241071*65\$GPGSV,3,3,12,24,02,240,35,131,33,221,-0,12,60,267,39,17,22,109,-0*4E
\c:1494445242071*66\$GPGSV,3,1,12,02,68,285,41,06,55,048,42,23,08,050,-0,19,40,101,-0*72
\c:1494445242071*66\$GPGSV,3,2,12,09,14,082,-0,138,38,209,-0,25,29,312,47,05,29,192,-0*51
\c:1494445242071*66\$GPGSV,3,3,12,24,02,240,34,131,33,221,-0,12,60,267,38,17,22,109,30*50
\c:1494445242096*6F\$GPZDA,234303.00,07,06,2017,00,00*66
\c:1494445242096*6F\$GPGGA,234303,4157.7964,N,08736.1308,W,1,00,,173.73,M,-34.239,M,,*63
\c:1494445242096*6F\$GPRMC,234303,A,4157.7964,N,08736.1308,W,4.8843,38.576,070617,,*0A
\c:1494445242096*6F\$GPGSA,A,2,,,,,,,,,,,,,0.0,0.0,0.0*33
\c:1494445243072*64\$GPGSV,3,1,12,02,68,285,42,06,55,048,42,23,08,050,-0,19,40,101,-0*71
\c:1494445243072*64\$GPGSV,3,2,12,09,14,082,36,138,38,209,-0,25,29,312,47,05,29,192,40*50
\c:1494445243072*64\$GPGSV,3,3,12,24,02,240,34,131,33,221,40,12,60,267,38,17,22,109,-0*57
\c:1494445243095*6D\$GPZDA,234304.00,07,06,2017,00,00*61
\c:1494445243095*6D\$GPGGA,234304,4157.7974,N,08736.1296,W,1,09,0.90,173.72,M,-34.239,M,,*7C
\c:1494445243095*6D\$GPRMC,234304,A,4157.7974,N,08736.1296,W,4.6871,41.051,070617,,*0B
\c:1494445243095*6D\$GPGSA,A,2,00,00,00,00,00,00,00,00,00,,,,1.5,0.9,1.2*3D
\c:1494445244072*63\$GPGSV,3,1,12,02,68,285,41,06,55,048,41,23,08,050,-0,19,40,101,40*68
\c:1494445244072*63\$GPGSV,3,2,12,09,14,082,36,138,38,209,-0,25,29,312,47,05,29,192,39*5E
\c:1494445244072*63\$GPGSV,3,3,12,24,02,240,34,131,33,221,40,12,60,267,39,17,22,109,32*4A
\c:1494445244126*63\$GPZDA,234305.00,07,06,2017,00,00*60
\c:1494445244126*63\$GPGGA,234305,4157.7986,N,08736.1284,W,1,09,0.90,173.70,M,-34.239,M,,*71
\c:1494445244126*63\$GPRMC,234305,A,4157.7986,N,08736.1284,W,4.6871,41.051,070617,,*04
\c:1494445244126*63\$GPGSA,A,2,00,00,00,00,00,00,00,00,00,,,,1.5,0.9,1.2*3D
\c:1494445245072*62\$GPGSV,3,1,12,02,68,285,40,06,55,048,42,23,08,050,-0,19,40,101,41*6B
\c:1494445245072*62\$GPGSV,3,2,12,09,14,082,-0,138,38,209,-0,25,29,312,46,05,30,192,39*4F
\c:1494445245072*62\$GPGSV,3,3,12,24,02,240,-0,131,33,221,41,12,60,267,39,17,22,109,33*50
\c:1494445245098*66\$GPZDA,234306.00,07,06,2017,00,00*63
\c:1494445245098*66\$GPGGA,234306,4157.7997,N,08736.1273,W,1,09,0.90,173.88,M,-34.239,M,,*7D
\c:1494445245098*66\$GPRMC,234306,A,4157.7997,N,08736.1273,W,4.6871,41.051,070617,,*0F
\c:1494445245098*66\$GPGSA,A,2,00,00,00,00,00,00,00,00,00,,,,1.5,0.9,1.2*3D
\c:1494445246072*61\$GPGSV,3,1,12,02,68,285,41,06,55,048,42,23,08,050,-0,19,40,101,40*6B
\c:1494445246072*61\$GPGSV,3,2,12,09,14,082,30,138,38,209,-0,25,29,312,45,05,30,192,39*52
\c:1494445246072*61\$GPGSV,3,3,12,24,02,240,-0,131,33,221,40,12,60,267,38,17,22,109,32*51
\c:1494445246103*66\$GPZDA,234307.00,07,06,2017,00,00*62
\c:1494445246103*66\$GPGGA,234307,4157.8008,N,08736.1261,W,1,09,0.90,173.38,M,-34.239,M,,*74
\c:1494445246103*66\$GPRMC,234307,A,4157.8008,N,08736.1261,W,4.6871,41.051,070617,,*0D
\c:1494445246104*61\$GPGSA,A,2,00,00,00,00,00,00,00,00,00,,,,1.5,0.9,1.2*3D
\c:1494445247070*62\$GPGSV,3,1,12,02,68,285,42,06,55,048,41,23,08,050,-0,19,40,101,39*65
\c:1494445247070*62\$GPGSV,3,2,12,09,14,082,30,138,38,209,-0,25,29,312,44,05,30,192,38*52
\c:1494445247070*62\$GPGSV,3,3,12,24,02,240,-0,131,33,221,-0,12,60,267,39,17,22,109,-0*55
\c:1494445247092*6E\$GPZDA,234308.00,07,06,2017,00,00*6D
\c:1494445247092*6E\$GPGGA,234308,4157.8016,N,08736.1251,W,1,09,0.90,173.21,M,-34.239,M,,*7F
\c:1494445247092*6E\$GPRMC,234308,A,4157.8016,N,08736.1251,W,4.6871,41.051,070617,,*0E
\c:1494445247093*6F\$GPGSA,A,2,00,00,00,00,00,00,00,00,00,,,,1.5,0.9,1.2*3D
\c:1494445248072*6F\$GPGSV,3,1,12,02,68,285,42,06,54,048,40,23,08,050,-0,19,40,101,38*64
\c:1494445248072*6F\$GPGSV,3,2,12,09,14,082,30,138,38,209,-0,25,29,312,45,05,30,192,39*52
\c:1494445248073*6E\$GPGSV,3,3,12,24,02,240,36,131,33,221,-0,12,60,267,38,17,22,109,-0*4C
\c:1494445248099*6A\$GPZDA,234309.00,07,06,2017,00,00*6C
\c:1494445248099*6A\$GPGGA,234309,4157.8026,N,08736.1240,W,1,09,0.90,172.94,M,-34.239,M,,*72
\c:1494445248099*6A\$GPRMC,234309,A,4157.8026,N,08736.1240,W,4.6871,41.051,070617,,*0C
\c:1494445248099*6A\$GPGSA,A,2,00,00,00,00,00,00,00,00,00,,,,1.5,0.9,1.2*3D
\c:1494445249070*6C\$GPGSV,3,1,12,02,68,285,42,06,54,048,40,23,08,050,-0,19,40,101,37*6B
\c:1494445249071*6D\$GPGSV,3,2,12,09,14,082,30,138,38,209,-0,25,29,312,46,05,30,192,41*5E
\c:1494445249071*6D\$GPGSV,3,3,12,24,02,240,37,131,33,221,43,12,60,267,38,17,22,109,-0*57
\c:1494445249096*64\$GPZDA,234310.00,07,06,2017,00,00*64
\c:1494445249097*65\$GPGGA,234310,4157.8035,N,08736.1231,W,1,09,0.90,172.77,M,-34.239,M,,*73
\c:1494445249097*65\$GPRMC,234310,A,4157.8035,N,08736.1231,W,4.6871,41.051,070617,,*00
\c:1494445249097*65\$GPGSA,A,2,00,00,00,00,00,00,00,00,00,,,,1.5,0.9,1.2*3D
\c:1494445250071*65\$GPGSV,3,1,12,02,68,285,41,06,54,048,40,23,08,050,-0,19,40,101,37*68
\c:1494445250072*66\$GPGSV,3,2,12,09,14,082,-0,138,38,209,-0,25,29,312,45,05,30,192,41*43
\c:1494445250072*66\$GPGSV,3,3,12,24,02,240,39,131,33,221,42,12,60,267,40,17,22,109,-0*57
\c:1494445250111*62\$GPZDA,234311.00,07,06,2017,00,00*65
\c:1494445250111*62\$GPGGA,234311,4157.8046,N,08736.1215,W,1,09,0.90,172.42,M,-34.239,M,,*76
\c:1494445250111*62\$GPRMC,234311,A,4157.8046,N,08736.1215,W,5.5353,49.200,070617,,*04
\c:1494445250111*62\$GPGSA,A,2,00,00,00,00,00,00,00,00,00,,,,1.5,0.9,1.2*3D
\c:1494445251071*64\$GPGSV,3,1,12,02,68,285,42,06,54,048,40,23,08,050,-0,19,40,101,36*6A
\c:1494445251071*64\$GPGSV,3,2,12,09,14,082,-0,138,38,209,-0,25,29,312,45,05,30,192,41*43
\c:1494445251071*64\$GPGSV,3,3,12,24,02,240,39,131,33,221,-0,12,60,267,41,17,22,109,-0*4D
\c:1494445251092*69\$GPZDA,234312.00,07,06,2017,00,00*66
\c:1494445251092*69\$GPGGA,234312,4157.8053,N,08736.1197,W,1,09,0.90,171.41,M,-34.239,M,,*78
\c:1494445251092*69\$GPRMC,234312,A,4157.8053,N,08736.1197,W,5.5353,49.200,070617,,*0A
\c:1494445251095*6E\$GPGSA,A,2,00,00,00,00,00,00,00,00,00,,,,1.5,0.9,1.2*3D
\c:1494445252071*67\$GPGSV,3,1,12,02,68,285,41,06,54,048,39,23,08,050,-0,19,40,101,37*66
\c:1494445252071*67\$GPGSV,3,2,12,09,14,082,-0,138,38,209,38,25,29,312,45,05,30,192,41*55
\c:1494445252071*67\$GPGSV,3,3,12,24,02,240,40,131,33,221,-0,12,60,266,42,17,22,109,41*59
\c:1494445252105*65\$GPZDA,234313.00,07,06,2017,00,00*67
\c:1494445252105*65\$GPGGA,234313,4157.8063,N,08736.1182,W,1,09,0.90,171.47,M,-34.239,M,,*78
\c:1494445252105*65\$GPRMC,234313,A,4157.8063,N,08736.1182,W,5.5353,49.200,070617,,*0C
\c:1494445252105*65\$GPGSA,A,2,00,00,00,00,00,00,00,00,00,,,,1.5,0.9,1.2*3D
\c:1494445253072*65\$GPGSV,3,1,12,02,68,285,42,06,54,048,39,23,08,050,-0,19,40,101,38*6A
\c:1494445253072*65\$GPGSV,3,2,12,09,14,082,39,138,38,209,38,25,29,312,44,05,30,192,41*43
\c:1494445253072*65\$GPGSV,3,3,12,24,02,240,40,131,33,221,-0,12,60,266,44,17,22,109,40*5E
\c:1494445253104*65\$GPZDA,234314.00,07,06,2017,00,00*60
\c:1494445253104*65\$GPGGA,234314,4157.8072,N,08736.1169,W,1,09,0.90,171.52,M,-34.239,M,,*7E
\c:1494445253104*65\$GPRMC,234314,A,4157.8072,N,08736.1169,W,5.2697,47.701,070617,,*0E
\c:1494445253104*65\$GPGSA,A,3,00,00,00,00,00,00,00,00,00,,,,1.5,0.9,1.2*3C
\c:1494445254071*61\$GPGSV,3,1,12,02,68,285,42,06,54,048,38,23,08,050,-0,19,40,101,37*64
\c:1494445254071*61\$GPGSV,3,2,12,09,14,082,39,138,38,209,-0,25,29,312,44,05,30,192,42*56
\c:1494445254071*61\$GPGSV,3,3,12,24,02,240,40,131,33,221,44,12,60,266,43,17,22,109,41*45
\c:1494445254093*6D\$GPZDA,234315.00,07,06,2017,00,00*61
\c:1494445254093*6D\$GPGGA,234315,4157.8082,N,08736.1156,W,1,09,0.90,171.61,M,-34.239,M,,*7C
\c:1494445254093*6D\$GPRMC,234315,A,4157.8082,N,08736.1156,W,5.4212,44.888,070617,,*0E
\c:1494445254093*6D\$GPGSA,A,3,00,00,00,00,00,00,00,00,00,,,,1.5,0.9,1.2*3C
\c:1494445255071*60\$GPGSV,3,1,12,02,68,285,43,06,54,048,37,23,08,050,-0,19,40,101,38*65
\c:1494445255071*60\$GPGSV,3,2,12,09,14,082,39,138,38,209,-0,25,29,312,44,05,30,192,41*55
\c:1494445255071*60\$GPGSV,3,3,12,24,02,240,41,131,33,221,-0,12,60,266,42,17,22,109,40*59
\c:1494445255097*68\$GPZDA,234316.00,07,06,2017,00,00*62
\c:1494445255097*68\$GPGGA,234316,4157.8089,N,08736.1144,W,1,09,0.90,171.15,M,-34.239,M,,*74
\c:1494445255097*68\$GPRMC,234316,A,4157.8089,N,08736.1144,W,5.4212,44.888,070617,,*05
\c:1494445255097*68\$GPGSA,A,3,00,00,00,00,00,00,00,00,00,,,,1.5,0.9,1.2*3C
\c:1494445256071*63\$GPGSV,3,1,12,02,68,285,42,06,54,048,36,23,08,050,-0,19,40,101,39*64
\c:1494445256071*63\$GPGSV,3,2,12,09,14,082,39,138,38,209,-0,25,29,312,44,05,30,192,41*55
\c:1494445256071*63\$GPGSV,3,3,12,24,02,240,41,131,33,221,-0,12,60,266,41,17,22,109,40*5A
\c:1494445256096*6A\$GPZDA,234317.00,07,06,2017,00,00*63
\c:1494445256097*6B\$GPGGA,234317,4157.8098,N,08736.1132,W,1,09,0.90,171.15,M,-34.239,M,,*74
\c:1494445256097*6B\$GPRMC,234317,A,4157.8098,N,08736.1132,W,5.0209,47.097,070617,,*0E
\c:1494445256097*6B\$GPGSA,A,3,00,00,00,00,00,00,00,00,00,,,,1.5,0.9,1.2*3C
\c:1494445257071*62\$GPGSV,3,1,12,02,68,285,42,06,54,048,37,23,08,050,-0,19,40,101,39*65
\c:1494445257071*62\$GPGSV,3,2,12,09,14,082,38,138,38,209,-0,25,29,312,43,05,30,192,42*50
\c:1494445257071*62\$GPGSV,3,3,12,24,02,240,41,131,33,221,-0,12,60,266,41,17,22,109,41*5B
\c:1494445257104*61\$GPZDA,234318.00,07,06,2017,00,00*6C
\c:1494445257105*60\$GPGGA,234318,4157.8107,N,08736.1118,W,1,09,0.90,171.19,M,-34.239,M,,*78
\c:1494445257105*60\$GPRMC,234318,A,4157.8107,N,08736.1118,W,5.0209,47.097,070617,,*0E
\c:1494445257105*60\$GPGSA,A,3,00,00,00,00,00,00,00,00,00,,,,1.5,0.9,1.2*3C
\c:1494445258072*6E\$GPGSV,3,1,12,02,68,285,42,06,54,048,37,23,08,050,-0,19,40,101,40*6B
\c:1494445258072*6E\$GPGSV,3,2,12,09,14,082,38,138,38,209,-0,25,29,312,43,05,30,192,41*53
\c:1494445258073*6F\$GPGSV,3,3,12,24,02,240,41,131,33,221,-0,12,60,266,41,17,22,109,40*5A
\c:1494445258105*6F\$GPZDA,234319.00,07,06,2017,00,00*6D
\c:1494445258106*6C\$GPGGA,234319,4157.8115,N,08736.1105,W,1,09,0.90,171.35,M,-34.239,M,,*78
\c:1494445258106*6C\$GPRMC,234319,A,4157.8115,N,08736.1105,W,4.7801,50.164,070617,,*0F
\c:1494445258106*6C\$GPGSA,A,3,00,00,00,00,00,00,00,00,00,,,,1.5,0.9,1.2*3C
\c:1494445259071*6C\$GPGSV,3,1,12,02,68,285,42,06,54,048,37,23,08,050,-0,19,40,101,40*6B
\c:1494445259072*6F\$GPGSV,3,2,12,09,14,082,40,138,38,209,38,25,29,312,44,05,30,192,40*4C
\c:1494445259072*6F\$GPGSV,3,3,12,24,02,240,41,131,33,221,-0,12,60,266,41,17,22,109,42*58
\c:1494445259105*6E\$GPZDA,234320.00,07,06,2017,00,00*67
\c:1494445259105*6E\$GPGGA,234320,4157.8124,N,08736.1092,W,1,09,0.90,171.43,M,-34.239,M,,*7E
\c:1494445259105*6E\$GPRMC,234320,A,4157.8124,N,08736.1092,W,4.9617,47.760,070617,,*0B
\c:1494445259105*6E\$GPGSA,A,3,00,00,00,00,00,00,00,00,00,,,,1.5,0.9,1.2*3C
\c:1494445260072*65\$GPGSV,3,1,12,02,68,285,41,06,54,048,37,23,08,050,-0,19,40,101,40*68
\c:1494445260072*65\$GPGSV,3,2,12,09,14,081,40,138,38,209,37,25,29,312,45,05,30,192,40*41
\c:1494445260072*65\$GPGSV,3,3,12,24,02,240,40,131,33,221,42,12,60,266,43,17,22,109,42*40
\c:1494445260096*6F\$GPZDA,234321.00,07,06,2017,00,00*66
\c:1494445260096*6F\$GPGGA,234321,4157.8135,N,08736.1079,W,1,09,0.90,171.66,M,-34.239,M,,*7D
\c:1494445260096*6F\$GPRMC,234321,A,4157.8135,N,08736.1079,W,5.1088,44.303,070617,,*04
\c:1494445260096*6F\$GPGSA,A,3,00,00,00,00,00,00,00,00,00,,,,1.5,0.9,1.2*3C
