\c:1494514639529*63\$GPGSV,3,1,12,05,75,048,44,02,49,083,38,29,61,302,-0,20,53,241,44*6F
\c:1494514639530*6B\$GPGSV,3,2,12,25,22,236,41,12,08,202,45,21,09,286,-0,138,38,209,44*55
\c:1494514639530*6B\$GPGSV,3,3,12,06,03,095,38,13,29,146,43,120,05,102,-0,15,13,183,48*5D
\c:1494514639554*69\$GPZDA,235039.00,12,07,2017,00,00*68
\c:1494514639555*68\$GPGGA,235039,4157.8413,N,08736.4979,W,1,09,1.04,192.05,M,-34.239,M,,*7F
\c:1494514639555*68\$GPRMC,235039,A,4157.8413,N,08736.4979,W,1.5375,294.317,120717,,*3C
\c:1494514639555*68\$GPGSA,A,3,00,00,00,00,00,00,00,00,00,,,,1.5,1.0,1.1*37
\c:1494514640524*60\$GPGSV,3,1,12,05,75,048,44,02,49,083,37,29,61,302,-0,20,53,241,45*61
\c:1494514640524*60\$GPGSV,3,2,12,25,22,236,42,12,08,202,45,21,09,286,-0,138,38,209,44*56
\c:1494514640524*60\$GPGSV,3,3,12,06,03,095,38,13,29,146,43,120,05,102,-0,15,13,183,48*5D
\c:1494514640560*60\$GPZDA,235040.00,12,07,2017,00,00*66
\c:1494514640560*60\$GPGGA,235040,4157.8416,N,08736.4986,W,1,09,1.04,192.01,M,-34.239,M,,*70
\c:1494514640560*60\$GPRMC,235040,A,4157.8416,N,08736.4986,W,1.6749,298.342,120717,,*33
\c:1494514640561*61\$GPGSA,A,3,00,00,00,00,00,00,00,00,00,,,,1.5,1.0,1.1*37
\c:1494514641524*61\$GPGSV,3,1,12,05,75,048,44,02,49,083,-0,29,61,302,40,20,53,241,45*61
\c:1494514641524*61\$GPGSV,3,2,12,25,22,236,41,12,08,202,44,21,09,286,-0,138,38,209,43*53
\c:1494514641524*61\$GPGSV,3,3,12,06,03,095,38,13,29,146,44,120,05,102,-0,15,13,183,48*5A
\c:1494514641563*62\$GPZDA,235041.00,12,07,2017,00,00*67
\c:1494514641563*62\$GPGGA,235041,4157.8419,N,08736.4991,W,1,09,1.04,191.68,M,-34.239,M,,*74
\c:1494514641563*62\$GPRMC,235041,A,4157.8419,N,08736.4991,W,1.5242,282.418,120717,,*35
\c:1494514641563*62\$GPGSA,A,3,00,00,00,00,00,00,00,00,00,,,,1.5,1.0,1.1*37
\c:1494514642526*60\$GPGSV,3,1,12,05,75,048,44,02,49,083,-0,29,61,302,40,20,53,241,44*60
\c:1494514642526*60\$GPGSV,3,2,12,25,22,236,42,12,08,202,45,21,09,286,-0,138,38,209,43*51
\c:1494514642526*60\$GPGSV,3,3,12,06,03,095,38,13,29,146,44,120,05,102,-0,15,13,183,47*55
\c:1494514642563*61\$GPZDA,235042.00,12,07,2017,00,00*64
\c:1494514642563*61\$GPGGA,235042,4157.8422,N,08736.4996,W,1,09,1.04,191.03,M,-34.239,M,,*75
\c:1494514642563*61\$GPRMC,235042,A,4157.8422,N,08736.4996,W,1.4903,280.295,120717,,*37
\c:1494514642564*66\$GPGSA,A,3,00,00,00,00,00,00,00,00,00,,,,1.5,1.0,1.1*37
\c:1494514643525*62\$GPGSV,3,1,12,05,75,048,44,02,49,083,38,29,61,302,40,20,53,241,45*77
\c:1494514643531*67\$GPGSV,3,2,12,25,22,236,43,12,08,202,45,21,09,286,-0,138,38,209,42*51
\c:1494514643531*67\$GPGSV,3,3,12,06,03,095,37,13,29,146,44,120,05,102,-0,15,13,183,47*5A
\c:1494514643571*63\$GPZDA,235043.00,12,07,2017,00,00*65
\c:1494514643571*63\$GPGGA,235043,4157.8427,N,08736.5001,W,1,09,1.04,190.78,M,-34.239,M,,*7A
\c:1494514643572*60\$GPRMC,235043,A,4157.8427,N,08736.5001,W,1.6529,315.361,120717,,*34
\c:1494514643572*60\$GPGSA,A,3,00,00,00,00,00,00,00,00,00,,,,1.5,1.0,1.1*37
\c:1494514644525*65\$GPGSV,3,1,12,05,75,048,44,02,49,083,37,29,61,302,41,20,53,241,45*79
\c:1494514644526*66\$GPGSV,3,2,12,25,22,236,43,12,08,202,47,21,09,286,-0,138,38,209,-0*48
\c:1494514644526*66\$GPGSV,3,3,12,06,03,095,38,13,29,146,46,120,05,102,-0,15,13,183,47*57
\c:1494514644566*62\$GPZDA,235044.00,12,07,2017,00,00*62
\c:1494514644567*63\$GPGGA,235044,4157.8432,N,08736.5006,W,1,09,1.04,190.13,M,-34.239,M,,*73
\c:1494514644567*63\$GPRMC,235044,A,4157.8432,N,08736.5006,W,1.9096,310.695,120717,,*35
\c:1494514644567*63\$GPGSA,A,3,00,00,00,00,00,00,00,00,00,,,,1.5,1.0,1.1*37
\c:1494514645524*65\$GPGSV,3,1,12,05,75,048,44,02,49,083,39,29,61,302,40,20,53,241,44*77
\c:1494514645524*65\$GPGSV,3,2,12,25,22,236,43,12,08,202,46,21,09,286,-0,138,38,209,-0*49
\c:1494514645524*65\$GPGSV,3,3,12,06,03,095,38,13,29,146,46,120,05,102,-0,15,13,183,47*57
\c:1494514645567*62\$GPZDA,235045.00,12,07,2017,00,00*63
\c:1494514645567*62\$GPGGA,235045,4157.8434,N,08736.5012,W,1,09,1.04,189.59,M,-34.239,M,,*77
\c:1494514645567*62\$GPRMC,235045,A,4157.8434,N,08736.5012,W,1.6286,286.309,120717,,*35
\c:1494514645567*62\$GPGSA,A,3,00,00,00,00,00,00,00,00,00,,,,1.5,1.0,1.1*37
\c:1494514646526*64\$GPGSV,3,1,12,05,75,048,44,02,49,083,37,29,61,302,41,20,53,241,44*78
\c:1494514646527*65\$GPGSV,3,2,12,25,22,236,43,12,08,202,46,21,09,286,-0,138,38,209,39*5E
\c:1494514646527*65\$GPGSV,3,3,12,06,03,095,37,13,29,146,45,120,05,102,-0,15,13,183,47*5B
\c:1494514646559*6C\$GPZDA,235046.00,12,07,2017,00,00*60
\c:1494514646559*6C\$GPGGA,235046,4157.8436,N,08736.5016,W,1,09,1.04,189.68,M,-34.239,M,,*70
\c:1494514646559*6C\$GPRMC,235046,A,4157.8436,N,08736.5016,W,1.3049,290.182,120717,,*32
\c:1494514646560*66\$GPGSA,A,3,00,00,00,00,00,00,00,00,00,,,,1.5,1.0,1.1*37
\c:1494514647524*67\$GPGSV,3,1,12,05,75,048,44,02,49,083,36,29,61,302,41,20,53,241,45*78
\c:1494514647524*67\$GPGSV,3,2,12,25,22,236,43,12,08,202,46,21,09,286,-0,138,38,209,-0*49
\c:1494514647524*67\$GPGSV,3,3,12,06,03,095,37,13,29,146,46,120,05,102,-0,15,13,183,47*58
\c:1494514647557*63\$GPZDA,235047.00,12,07,2017,00,00*61
\c:1494514647558*6C\$GPGGA,235047,4157.8439,N,08736.5021,W,1,09,1.04,189.70,M,-34.239,M,,*73
\c:1494514647558*6C\$GPRMC,235047,A,4157.8439,N,08736.5021,W,1.6877,305.303,120717,,*3E
\c:1494514647558*6C\$GPGSA,A,3,00,00,00,00,00,00,00,00,00,,,,1.5,1.0,1.1*37
\c:1494514648524*68\$GPGSV,3,1,12,05,75,048,44,02,49,083,36,29,61,302,41,20,53,241,45*78
\c:1494514648532*6F\$GPGSV,3,2,12,25,22,236,-0,12,08,202,45,21,09,286,-0,138,38,209,44*4D
\c:1494514648532*6F\$GPGSV,3,3,12,06,03,095,38,13,29,146,46,120,05,102,-0,15,13,183,46*56
\c:1494514648554*6F\$GPZDA,235048.00,12,07,2017,00,00*6E
\c:1494514648554*6F\$GPGGA,235048,4157.8442,N,08736.5027,W,1,09,1.04,189.40,M,-34.239,M,,*75
\c:1494514648554*6F\$GPRMC,235048,A,4157.8442,N,08736.5027,W,1.8609,296.435,120717,,*3B
\c:1494514648554*6F\$GPGSA,A,3,00,00,00,00,00,00,00,00,00,,,,1.5,1.0,1.1*37
\c:1494514649524*69\$GPGSV,3,1,12,05,75,048,45,02,49,083,37,29,61,302,40,20,53,241,45*79
\c:1494514649524*69\$GPGSV,3,2,12,25,22,236,38,12,08,202,45,21,09,286,-0,138,38,209,-0*46
\c:1494514649524*69\$GPGSV,3,3,12,06,03,095,38,13,29,146,45,120,05,102,-0,15,13,183,47*54
\c:1494514649555*6F\$GPZDA,235049.00,12,07,2017,00,00*6F
\c:1494514649555*6F\$GPGGA,235049,4157.8446,N,08736.5034,W,1,09,1.04,188.81,M,-34.239,M,,*7E
\c:1494514649555*6F\$GPRMC,235049,A,4157.8446,N,08736.5034,W,1.6809,291.080,120717,,*31
\c:1494514649555*6F\$GPGSA,A,3,00,00,00,00,00,00,00,00,00,,,,1.5,1.0,1.1*37
\c:1494514650524*61\$GPGSV,3,1,12,05,75,048,45,02,49,083,-0,29,61,302,40,20,53,241,45*60
\c:1494514650524*61\$GPGSV,3,2,12,25,22,236,41,12,08,202,45,21,09,286,-0,138,38,209,-0*48
\c:1494514650524*61\$GPGSV,3,3,12,06,03,095,38,13,29,146,43,120,05,102,-0,15,13,183,47*52
\c:1494514650554*66\$GPZDA,235050.00,12,07,2017,00,00*67
\c:1494514650554*66\$GPGGA,235050,4157.8449,N,08736.5039,W,1,09,1.04,188.71,M,-34.239,M,,*7B
\c:1494514650555*67\$GPRMC,235050,A,4157.8449,N,08736.5039,W,1.4292,293.789,120717,,*3D
\c:1494514650555*67\$GPGSA,A,3,00,00,00,00,00,00,00,00,00,,,,1.5,1.0,1.1*37
\c:1494514651523*67\$GPGSV,3,1,12,05,75,048,44,02,49,083,-0,29,61,302,40,20,53,241,45*61
\c:1494514651523*67\$GPGSV,3,2,12,25,22,236,40,12,08,202,44,21,09,286,-0,138,38,209,-0*48
\c:1494514651523*67\$GPGSV,3,3,12,06,03,095,38,13,29,146,44,120,05,102,-0,15,13,183,46*54
\c:1494514651554*67\$GPZDA,235051.00,12,07,2017,00,00*66
\c:1494514651555*66\$GPGGA,235051,4157.8452,N,08736.5045,W,1,09,1.04,188.64,M,-34.239,M,,*7F
\c:1494514651555*66\$GPRMC,235051,A,4157.8452,N,08736.5045,W,1.7527,305.332,120717,,*3D
\c:1494514651555*66\$GPGSA,A,3,00,00,00,00,00,00,00,00,00,,,,1.5,1.0,1.1*37
\c:1494514652524*63\$GPGSV,3,1,12,05,75,048,43,02,49,083,-0,29,61,302,40,20,53,241,44*67
\c:1494514652525*62\$GPGSV,3,2,12,25,22,236,39,12,08,202,44,21,09,286,-0,138,38,209,41*5E
\c:1494514652525*62\$GPGSV,3,3,12,06,03,095,39,13,29,146,43,120,05,102,-0,15,13,183,46*52
\c:1494514652558*68\$GPZDA,235052.00,12,07,2017,00,00*65
\c:1494514652558*68\$GPGGA,235052,4157.8456,N,08736.5051,W,1,09,1.04,188.55,M,-34.239,M,,*7F
\c:1494514652558*68\$GPRMC,235052,A,4157.8456,N,08736.5051,W,1.8715,298.611,120717,,*32
\c:1494514652558*68\$GPGSA,A,3,00,00,00,00,00,00,00,00,00,,,,1.5,1.0,1.1*37
\c:1494514653524*62\$GPGSV,3,1,12,05,75,048,44,02,49,083,38,29,61,302,40,20,53,241,44*76
\c:1494514653525*63\$GPGSV,3,2,12,25,22,236,38,12,08,202,43,21,09,286,-0,138,38,209,41*58
\c:1494514653525*63\$GPGSV,3,3,12,06,03,095,38,13,29,146,45,120,05,102,-0,15,13,183,47*54
\c:1494514653562*60\$GPZDA,235053.00,12,07,2017,00,00*64
\c:1494514653562*60\$GPGGA,235053,4157.8458,N,08736.5055,W,1,09,1.04,188.59,M,-34.239,M,,*78
\c:1494514653562*60\$GPRMC,235053,A,4157.8458,N,08736.5055,W,1.3818,285.957,120717,,*31
\c:1494514653562*60\$GPGSA,A,3,00,00,00,00,00,00,00,00,00,,,,1.5,1.0,1.1*37
\c:1494514654525*64\$GPGSV,3,1,12,05,75,048,44,02,49,083,-0,29,61,302,40,20,53,241,45*61
\c:1494514654525*64\$GPGSV,3,2,12,25,22,236,38,12,08,202,43,21,09,286,-0,138,38,209,41*58
\c:1494514654525*64\$GPGSV,3,3,12,06,03,095,37,13,29,146,46,120,05,102,-0,15,13,183,47*58
\c:1494514654558*6E\$GPZDA,235054.00,12,07,2017,00,00*63
\c:1494514654558*6E\$GPGGA,235054,4157.8462,N,08736.5060,W,1,09,1.04,188.37,M,-34.239,M,,*78
\c:1494514654558*6E\$GPRMC,235054,A,4157.8462,N,08736.5060,W,1.6682,305.666,120717,,*35
\c:1494514654558*6E\$GPGSA,A,3,00,00,00,00,00,00,00,00,00,,,,1.5,1.0,1.1*37
\c:1494514655524*64\$GPGSV,3,1,12,05,75,048,43,02,49,083,40,29,61,302,40,20,53,241,46*7C
\c:1494514655524*64\$GPGSV,3,2,12,25,22,236,38,12,08,202,44,21,09,286,-0,138,38,209,41*5F
\c:1494514655524*64\$GPGSV,3,3,12,06,03,095,37,13,29,146,47,120,05,102,-0,15,13,183,47*59
\c:1494514655557*60\$GPZDA,235055.00,12,07,2017,00,00*62
\c:1494514655557*60\$GPGGA,235055,4157.8464,N,08736.5067,W,1,09,1.04,188.73,M,-34.239,M,,*78
\c:1494514655557*60\$GPRMC,235055,A,4157.8464,N,08736.5067,W,1.7150,296.014,120717,,*34
\c:1494514655557*60\$GPGSA,A,3,00,00,00,00,00,00,00,00,00,,,,1.5,1.0,1.1*37
\c:1494514656525*66\$GPGSV,3,1,12,05,75,048,43,02,49,083,40,29,61,302,39,20,53,241,46*72
\c:1494514656525*66\$GPGSV,3,2,12,25,22,236,38,12,08,202,44,21,09,286,-0,138,38,209,42*5C
\c:1494514656525*66\$GPGSV,3,3,12,06,03,095,38,13,29,146,47,120,05,102,-0,15,13,183,46*57
\c:1494514656563*64\$GPZDA,235056.00,12,07,2017,00,00*61
\c:1494514656563*64\$GPGGA,235056,4157.8468,N,08736.5072,W,1,09,1.04,188.27,M,-34.239,M,,*72
\c:1494514656563*64\$GPRMC,235056,A,4157.8468,N,08736.5072,W,1.7239,300.704,120717,,*3B
\c:1494514656563*64\$GPGSA,A,3,00,00,00,00,00,00,00,00,00,,,,1.5,1.0,1.1*37
\c:1494514657524*66\$GPGSV,3,1,12,05,75,048,43,02,49,083,-0,29,61,302,39,20,53,241,45*68
\c:1494514657524*66\$GPGSV,3,2,12,25,22,236,38,12,08,202,45,21,09,286,-0,138,38,209,42*5D
\c:1494514657524*66\$GPGSV,3,3,12,06,03,095,37,13,29,146,46,120,05,102,-0,15,13,183,46*59
\c:1494514657556*63\$GPZDA,235057.00,12,07,2017,00,00*60
\c:1494514657556*63\$GPGGA,235057,4157.8472,N,08736.5077,W,1,09,1.04,188.05,M,-34.239,M,,*7D
\c:1494514657556*63\$GPRMC,235057,A,4157.8472,N,08736.5077,W,1.5970,298.888,120717,,*3B
\c:1494514657556*63\$GPGSA,A,3,00,00,00,00,00,00,00,00,00,,,,1.5,1.0,1.1*37
\c:1494514658525*68\$GPGSV,3,1,12,05,75,048,43,02,49,083,-0,29,61,302,40,20,53,241,44*67
\c:1494514658525*68\$GPGSV,3,2,12,25,22,236,37,12,08,202,45,21,09,286,-0,138,38,209,41*51
\c:1494514658525*68\$GPGSV,3,3,12,06,03,095,40,13,29,146,47,120,05,102,-0,15,13,183,47*59
\c:1494514658564*6D\$GPZDA,235058.00,12,07,2017,00,00*6F
\c:1494514658564*6D\$GPGGA,235058,4157.8474,N,08736.5082,W,1,09,1.04,187.59,M,-34.239,M,,*78
\c:1494514658564*6D\$GPRMC,235058,A,4157.8474,N,08736.5082,W,1.4675,275.933,120717,,*31
\c:1494514658564*6D\$GPGSA,A,3,00,00,00,00,00,00,00,00,00,,,,1.5,1.0,1.1*37
\c:1494514659551*6A\$GPZDA,235059.00,12,07,2017,00,00*6E
\c:1494514659551*6A\$GPGGA,235059,4157.8477,N,08736.5087,W,1,09,1.04,187.43,M,-34.239,M,,*74
\c:1494514659551*6A\$GPRMC,235059,A,4157.8477,N,08736.5087,W,1.4778,280.044,120717,,*39
\c:1494514659552*69\$GPGSA,A,3,00,00,00,00,00,00,00,00,00,,,,1.5,1.0,1.1*37
\c:1494514660524*62\$GPGSV,3,1,12,05,75,048,42,02,49,083,-0,29,61,302,40,20,53,241,43*61
\c:1494514660524*62\$GPGSV,3,2,12,25,22,236,-0,12,08,202,45,21,09,286,-0,138,38,209,-0*50
\c:1494514660524*62\$GPGSV,3,3,12,06,03,095,40,13,29,146,44,120,05,102,-0,15,13,183,48*55
\c:1494514660550*61\$GPZDA,235100.00,12,07,2017,00,00*63
\c:1494514660551*60\$GPGGA,235100,4157.8481,N,08736.5092,W,1,09,1.04,186.99,M,-34.239,M,,*72
\c:1494514660551*60\$GPRMC,235100,A,4157.8481,N,08736.5092,W,1.3955,287.494,120717,,*31
\c:1494514660551*60\$GPGSA,A,3,00,00,00,00,00,00,00,00,00,,,,1.5,1.0,1.1*37
\c:1494514661524*63\$GPGSV,3,1,12,05,75,048,42,02,49,083,33,29,61,302,39,20,53,241,42*73
\c:1494514661524*63\$GPGSV,3,2,12,25,22,236,31,12,08,202,44,21,09,286,-0,138,38,209,-0*4E
\c:1494514661525*62\$GPGSV,3,3,12,06,03,095,42,13,29,146,44,120,05,102,40,15,13,183,48*4E
\c:1494514661568*6B\$GPZDA,235101.00,12,07,2017,00,00*62
\c:1494514661568*6B\$GPGGA,235101,4157.8484,N,08736.5097,W,1,09,1.04,186.27,M,-34.239,M,,*76
\c:1494514661568*6B\$GPRMC,235101,A,4157.8484,N,08736.5097,W,1.3172,271.493,120717,,*33
\c:1494514661568*6B\$GPGSA,A,3,00,00,00,00,00,00,00,00,00,,,,1.5,1.0,1.1*37
\c:1494514662525*61\$GPGSV,3,1,12,05,75,048,41,02,49,083,37,29,61,302,39,20,53,241,40*76
\c:1494514662526*62\$GPGSV,3,2,12,25,22,236,32,12,08,202,44,21,09,286,-0,138,38,209,-0*4D
\c:1494514662526*62\$GPGSV,3,3,12,06,03,095,43,13,29,146,43,120,05,102,41,15,13,183,48*49
\c:1494514662560*60\$GPZDA,235102.00,12,07,2017,00,00*61
\c:1494514662561*61\$GPGGA,235102,4157.8486,N,08736.5102,W,1,09,1.04,185.78,M,-34.239,M,,*73
\c:1494514662561*61\$GPRMC,235102,A,4157.8486,N,08736.5102,W,1.3167,255.852,120717,,*3C
\c:1494514662561*61\$GPGSA,A,3,00,00,00,00,00,00,00,00,00,,,,1.5,1.0,1.1*37
\c:1494514663525*60\$GPGSV,3,1,12,05,75,048,40,02,49,083,37,29,61,302,-0,20,53,241,-0*79
\c:1494514663525*60\$GPGSV,3,2,12,25,22,236,32,12,08,202,44,21,09,286,-0,138,38,209,-0*4D
\c:1494514663525*60\$GPGSV,3,3,12,06,03,095,44,13,30,145,43,120,05,102,41,15,13,183,47*4A
\c:1494514663558*6A\$GPZDA,235103.00,12,07,2017,00,00*60
\c:1494514663558*6A\$GPGGA,235103,4157.8487,N,08736.5104,W,1,09,1.04,185.75,M,-34.239,M,,*78
\c:1494514663558*6A\$GPRMC,235103,A,4157.8487,N,08736.5104,W,1.2730,265.051,120717,,*37
\c:1494514663558*6A\$GPGSA,A,3,00,00,00,00,00,00,00,00,00,,,,1.5,1.0,1.1*37
\c:1494514664525*67\$GPGSV,3,1,12,05,75,048,40,02,49,083,36,29,61,302,-0,20,53,241,33*65
\c:1494514664525*67\$GPGSV,3,2,12,25,22,236,32,12,08,202,43,21,09,286,-0,138,38,209,-0*4A
\c:1494514664525*67\$GPGSV,3,3,12,06,03,095,45,13,30,145,42,120,05,102,41,15,13,183,46*4B
\c:1494514664555*60\$GPZDA,235104.00,12,07,2017,00,00*67
\c:1494514664555*60\$GPGGA,235104,4157.8490,N,08736.5111,W,1,09,1.04,185.12,M,-34.239,M,,*7C
\c:1494514664555*60\$GPRMC,235104,A,4157.8490,N,08736.5111,W,1.0574,262.173,120717,,*34
\c:1494514664555*60\$GPGSA,A,3,00,00,00,00,00,00,00,00,00,,,,1.5,1.0,1.1*37
\c:1494514665526*65\$GPGSV,3,1,12,05,75,048,39,02,49,083,37,29,61,302,43,20,53,241,33*70
\c:1494514665526*65\$GPGSV,3,2,12,25,22,236,32,12,08,202,43,21,09,286,-0,138,38,209,43*50
\c:1494514665526*65\$GPGSV,3,3,12,06,03,095,45,13,30,145,42,120,05,102,42,15,13,183,46*48
\c:1494514665568*6F\$GPZDA,235105.00,12,07,2017,00,00*66
\c:1494514665569*6E\$GPGGA,235105,4157.8490,N,08736.5113,W,1,09,1.04,184.57,M,-34.239,M,,*7F
\c:1494514665569*6E\$GPRMC,235105,A,4157.8490,N,08736.5113,W,1.1516,236.480,120717,,*3A
\c:1494514665569*6E\$GPGSA,A,3,00,00,00,00,00,00,00,00,00,,,,1.5,1.0,1.1*37
\c:1494514666526*66\$GPGSV,3,1,12,05,75,048,38,02,49,083,36,29,61,302,43,20,53,241,33*70
\c:1494514666526*66\$GPGSV,3,2,12,25,22,236,32,12,08,202,42,21,09,286,-0,138,38,209,42*50
\c:1494514666526*66\$GPGSV,3,3,12,06,03,095,45,13,30,145,42,120,05,102,41,15,13,183,44*49
\c:1494514666570*65\$GPZDA,235106.00,12,07,2017,00,00*65
\c:1494514666570*65\$GPGGA,235106,4157.8487,N,08736.5115,W,1,09,1.04,185.65,M,-34.239,M,,*7C
\c:1494514666570*65\$GPRMC,235106,A,4157.8487,N,08736.5115,W,0.9745,238.148,120717,,*3B
\c:1494514666570*65\$GPGSA,A,3,00,00,00,00,00,00,00,00,00,,,,1.5,1.0,1.1*37
\c:1494514667524*65\$GPGSV,3,1,12,05,75,048,-0,02,49,083,36,29,61,302,42,20,53,241,32*66
\c:1494514667524*65\$GPGSV,3,2,12,25,22,236,32,12,08,202,41,21,09,286,-0,138,38,209,-0*48
\c:1494514667524*65\$GPGSV,3,3,12,06,03,095,45,13,30,145,41,120,05,102,42,15,13,183,44*49
\c:1494514667557*61\$GPZDA,235107.00,12,07,2017,00,00*64
\c:1494514667557*61\$GPGGA,235107,4157.8491,N,08736.5119,W,1,09,1.04,185.93,M,-34.239,M,,*7F
\c:1494514667558*6E\$GPRMC,235107,A,4157.8491,N,08736.5119,W,0.9745,238.148,120717,,*31
\c:1494514667558*6E\$GPGSA,A,3,00,00,00,00,00,00,00,00,00,,,,1.5,1.0,1.1*37
\c:1494514668525*6B\$GPGSV,3,1,12,05,75,048,-0,02,49,083,35,29,61,302,-0,20,53,241,33*7F
\c:1494514668525*6B\$GPGSV,3,2,12,25,22,236,-0,12,08,202,40,21,09,286,-0,138,38,209,-0*55
\c:1494514668525*6B\$GPGSV,3,3,12,06,03,095,44,13,30,145,41,120,05,102,42,15,13,183,43*4F
\c:1494514668556*6F\$GPZDA,235108.00,12,07,2017,00,00*6B
\c:1494514668556*6F\$GPGGA,235108,4157.8492,N,08736.5121,W,1,09,1.04,185.83,M,-34.239,M,,*79
\c:1494514668557*6E\$GPRMC,235108,A,4157.8492,N,08736.5121,W,0.9745,238.148,120717,,*36
\c:1494514668557*6E\$GPGSA,A,3,00,00,00,00,00,00,00,00,00,,,,1.5,1.0,1.1*37
\c:1494514669524*6B\$GPGSV,3,1,12,05,75,048,-0,02,49,083,36,29,61,302,-0,20,53,241,33*7C
\c:1494514669524*6B\$GPGSV,3,2,12,25,22,236,32,12,08,202,39,21,09,286,-0,138,38,209,-0*47
\c:1494514669524*6B\$GPGSV,3,3,12,06,03,095,45,13,30,145,40,120,05,102,42,15,13,183,43*4F
\c:1494514669565*6E\$GPZDA,235109.00,12,07,2017,00,00*6A
\c:1494514669565*6E\$GPGGA,235109,4157.8490,N,08736.5124,W,1,09,1.04,185.54,M,-34.239,M,,*75
\c:1494514669565*6E\$GPRMC,235109,A,4157.8490,N,08736.5124,W,0.9745,238.148,120717,,*30
\c:1494514669566*6D\$GPGSA,A,3,00,00,00,00,00,00,00,00,00,,,,1.5,1.0,1.1*37
\c:1494514670524*63\$GPGSV,3,1,12,05,75,048,37,02,49,083,39,29,61,302,-0,20,53,241,34*6D
\c:1494514670524*63\$GPGSV,3,2,12,25,22,236,31,12,08,202,-0,21,09,286,-0,138,38,209,-0*53
\c:1494514670525*62\$GPGSV,3,3,12,06,03,095,45,13,30,145,39,120,05,102,42,15,14,183,41*44
\c:1494514670556*66\$GPZDA,235110.00,12,07,2017,00,00*62
\c:1494514670557*67\$GPGGA,235110,4157.8487,N,08736.5123,W,1,09,1.04,185.62,M,-34.239,M,,*79
\c:1494514670557*67\$GPRMC,235110,A,4157.8487,N,08736.5123,W,1.6343,165.201,120717,,*30
\c:1494514670557*67\$GPGSA,A,3,00,00,00,00,00,00,00,00,00,,,,1.5,1.0,1.1*37
\c:1494514671523*65\$GPGSV,3,1,12,05,75,048,37,02,49,083,40,29,61,302,-0,20,53,241,33*64
\c:1494514671524*62\$GPGSV,3,2,12,25,22,236,33,12,08,202,-0,21,09,286,-0,138,38,209,-0*51
\c:1494514671524*62\$GPGSV,3,3,12,06,03,095,45,13,30,145,42,120,05,102,41,15,14,183,40*4A
\c:1494514671557*66\$GPZDA,235111.00,12,07,2017,00,00*63
\c:1494514671557*66\$GPGGA,235111,4157.8484,N,08736.5125,W,1,09,1.04,185.51,M,-34.239,M,,*7D
\c:1494514671557*66\$GPRMC,235111,A,4157.8484,N,08736.5125,W,1.1701,196.867,120717,,*37
\c:1494514671557*66\$GPGSA,A,3,00,00,00,00,00,00,00,00,00,,,,1.5,1.0,1.1*37
\c:1494514672524*61\$GPGSV,3,1,12,05,75,048,36,02,49,083,42,29,61,302,-0,20,53,241,33*67
\c:1494514672525*60\$GPGSV,3,2,12,25,22,236,33,12,08,202,-0,21,09,286,-0,138,38,209,-0*51
\c:1494514672525*60\$GPGSV,3,3,12,06,03,095,44,13,30,145,41,120,05,102,42,15,14,183,-0*52
\c:1494514672554*66\$GPZDA,235112.00,12,07,2017,00,00*60
\c:1494514672555*67\$GPGGA,235112,4157.8483,N,08736.5126,W,1,09,1.04,184.87,M,-34.239,M,,*70
\c:1494514672555*67\$GPRMC,235112,A,4157.8483,N,08736.5126,W,1.1701,196.867,120717,,*30
\c:1494514672555*67\$GPGSA,A,3,00,00,00,00,00,00,00,00,00,,,,1.5,1.0,1.1*37
\c:1494514673525*61\$GPGSV,3,1,12,05,75,048,36,02,49,083,41,29,61,302,36,20,53,241,35*7A
\c:1494514673525*61\$GPGSV,3,2,12,25,22,236,32,12,08,202,-0,21,09,286,-0,138,38,209,-0*50
\c:1494514673525*61\$GPGSV,3,3,12,06,03,095,44,13,30,145,40,120,05,102,42,15,14,183,-0*53
\c:1494514673559*6A\$GPZDA,235113.00,12,07,2017,00,00*61
\c:1494514673559*6A\$GPGGA,235113,4157.8482,N,08736.5126,W,1,09,1.04,184.30,M,-34.239,M,,*7C
\c:1494514673559*6A\$GPRMC,235113,A,4157.8482,N,08736.5126,W,1.1225,166.423,120717,,*30
\c:1494514673559*6A\$GPGSA,A,3,00,00,00,00,00,00,00,00,00,,,,1.5,1.0,1.1*37
\c:1494514674525*66\$GPGSV,3,1,12,05,75,048,36,02,49,083,43,29,61,302,36,20,53,241,36*7B
\c:1494514674525*66\$GPGSV,3,2,12,25,22,236,-0,12,08,202,-0,21,09,286,-0,138,38,209,-0*4C
\c:1494514674525*66\$GPGSV,3,3,12,06,03,095,44,13,30,145,40,120,05,102,42,15,14,183,-0*53
\c:1494514674559*6D\$GPZDA,235114.00,12,07,2017,00,00*66
\c:1494514674559*6D\$GPGGA,235114,4157.8481,N,08736.5126,W,1,09,1.04,183.65,M,-34.239,M,,*7F
\c:1494514674559*6D\$GPRMC,235114,A,4157.8481,N,08736.5126,W,0.8746,180.190,120717,,*39
\c:1494514674559*6D\$GPGSA,A,3,00,00,00,00,00,00,00,00,00,,,,1.5,1.0,1.1*37
\c:1494514675524*66\$GPGSV,3,1,12,05,75,048,35,02,49,083,44,29,61,302,36,20,53,241,38*71
\c:1494514675524*66\$GPGSV,3,2,12,25,22,236,-0,12,08,202,-0,21,09,286,-0,138,38,209,-0*4C
\c:1494514675524*66\$GPGSV,3,3,12,06,03,095,44,13,30,145,41,120,05,102,42,15,14,183,33*4F
\c:1494514675561*67\$GPZDA,235115.00,12,07,2017,00,00*67
\c:1494514675562*64\$GPGGA,235115,4157.8479,N,08736.5124,W,1,09,1.04,183.96,M,-34.239,M,,*77
\c:1494514675562*64\$GPRMC,235115,A,4157.8479,N,08736.5124,W,1.1617,163.957,120717,,*3E
\c:1494514675562*64\$GPGSA,A,3,00,00,00,00,00,00,00,00,00,,,,1.5,1.0,1.1*37
\c:1494514676524*65\$GPGSV,3,1,12,05,75,048,37,02,49,083,45,29,61,302,36,20,53,241,39*73
\c:1494514676524*65\$GPGSV,3,2,12,25,22,236,30,12,08,202,-0,21,09,286,-0,138,38,209,-0*52
\c:1494514676524*65\$GPGSV,3,3,12,06,03,095,44,13,30,145,41,120,05,102,43,15,14,183,-0*53
\c:1494514676564*61\$GPZDA,235116.00,12,07,2017,00,00*64
\c:1494514676564*61\$GPGGA,235116,4157.8478,N,08736.5123,W,1,09,1.04,183.66,M,-34.239,M,,*7D
\c:1494514676564*61\$GPRMC,235116,A,4157.8478,N,08736.5123,W,0.7004,162.857,120717,,*38
\c:1494514676564*61\$GPGSA,A,3,00,00,00,00,00,00,00,00,00,,,,1.5,1.0,1.1*37
\c:1494514677525*65\$GPGSV,3,1,12,05,75,048,39,02,49,083,46,29,61,302,-0,20,53,241,39*66
\c:1494514677525*65\$GPGSV,3,2,12,25,22,236,31,12,08,202,-0,21,09,286,-0,138,38,209,40*4A
\c:1494514677525*65\$GPGSV,3,3,12,06,03,095,45,13,30,145,39,120,05,102,43,15,14,183,-0*5D
\c:1494514677557*60\$GPZDA,235117.00,12,07,2017,00,00*65
\c:1494514677557*60\$GPGGA,235117,4157.8476,N,08736.5121,W,1,09,1.04,183.33,M,-34.239,M,,*70
\c:1494514677557*60\$GPRMC,235117,A,4157.8476,N,08736.5121,W,1.1518,160.102,120717,,*31
\c:1494514677558*6F\$GPGSA,A,3,00,00,00,00,00,00,00,00,00,,,,1.5,1.0,1.1*37
\c:1494514678525*6A\$GPGSV,3,1,12,05,75,048,40,02,49,083,47,29,61,302,38,20,53,241,39*7F
\c:1494514678525*6A\$GPGSV,3,2,12,25,22,236,-0,12,08,202,36,21,09,286,-0,138,38,209,-0*54
\c:1494514678525*6A\$GPGSV,3,3,12,06,03,095,46,13,30,145,39,120,05,102,43,15,14,183,-0*5E
\c:1494514678556*6E\$GPZDA,235118.00,12,07,2017,00,00*6A
\c:1494514678556*6E\$GPGGA,235118,4157.8475,N,08736.5120,W,1,08,1.28,183.11,M,-34.239,M,,*72
\c:1494514678557*6F\$GPRMC,235118,A,4157.8475,N,08736.5120,W,0.4957,155.758,120717,,*30
\c:1494514678557*6F\$GPGSA,A,3,00,00,00,00,00,00,00,00,,,,,2.0,1.3,1.6*35
\c:1494514679524*6A\$GPGSV,3,1,12,05,75,048,41,02,49,083,48,29,61,302,38,20,53,241,40*7F
\c:1494514679524*6A\$GPGSV,3,2,12,25,22,236,-0,12,08,202,35,21,09,286,-0,138,38,209,42*4C
\c:1494514679524*6A\$GPGSV,3,3,12,06,03,095,47,13,30,145,38,120,05,102,43,15,14,183,37*47
\c:1494514679561*6B\$GPZDA,235119.00,12,07,2017,00,00*6B
\c:1494514679561*6B\$GPGGA,235119,4157.8474,N,08736.5117,W,1,09,1.04,182.98,M,-34.239,M,,*79
\c:1494514679561*6B\$GPRMC,235119,A,4157.8474,N,08736.5117,W,1.0061,144.982,120717,,*34
\c:1494514679561*6B\$GPGSA,A,3,00,00,00,00,00,00,00,00,00,,,,1.5,1.0,1.1*37
\c:1494514680525*6D\$GPGSV,3,1,12,05,75,048,42,02,49,083,48,29,61,302,39,20,53,241,41*7C
\c:1494514680525*6D\$GPGSV,3,2,12,25,22,236,-0,12,08,202,35,21,09,286,-0,138,38,209,-0*57
\c:1494514680525*6D\$GPGSV,3,3,12,06,03,095,46,13,30,145,38,120,05,102,43,15,14,183,36*47
\c:1494514680554*6B\$GPZDA,235120.00,12,07,2017,00,00*61
\c:1494514680555*6A\$GPGGA,235120,4157.8472,N,08736.5114,W,1,09,1.04,182.49,M,-34.239,M,,*7A
\c:1494514680555*6A\$GPRMC,235120,A,4157.8472,N,08736.5114,W,1.1212,148.136,120717,,*37
\c:1494514680555*6A\$GPGSA,A,3,00,00,00,00,00,00,00,00,00,,,,1.5,1.0,1.1*37
\c:1494514681523*6A\$GPGSV,3,1,12,05,75,048,43,02,49,083,49,29,61,302,40,20,53,241,41*72
\c:1494514681524*6D\$GPGSV,3,2,12,25,22,236,-0,12,08,202,36,21,09,286,-0,138,38,209,-0*54
\c:1494514681524*6D\$GPGSV,3,3,12,06,03,095,47,13,30,145,37,120,05,102,42,15,14,183,36*48
\c:1494514681550*6E\$GPZDA,235121.00,12,07,2017,00,00*60
\c:1494514681551*6F\$GPGGA,235121,4157.8470,N,08736.5112,W,1,09,1.04,182.30,M,-34.239,M,,*71
\c:1494514681551*6F\$GPRMC,235121,A,4157.8470,N,08736.5112,W,0.9575,140.702,120717,,*34
\c:1494514681551*6F\$GPGSA,A,3,00,00,00,00,00,00,00,00,00,,,,1.5,1.0,1.1*37
\c:1494514682524*6E\$GPGSV,3,1,12,05,75,048,43,02,49,083,48,29,61,302,42,20,53,241,41*71
\c:1494514682525*6F\$GPGSV,3,2,12,25,22,236,-0,12,08,202,35,21,09,286,-0,138,38,209,-0*57
\c:1494514682525*6F\$GPGSV,3,3,12,06,03,095,46,13,30,145,-0,120,05,102,42,15,14,183,-0*48
\c:1494514682551*6C\$GPZDA,235122.00,12,07,2017,00,00*63
\c:1494514682551*6C\$GPGGA,235122,4157.8468,N,08736.5108,W,1,09,1.04,182.01,M,-34.239,M,,*72
\c:1494514682551*6C\$GPRMC,235122,A,4157.8468,N,08736.5108,W,1.2510,138.567,120717,,*32
\c:1494514682551*6C\$GPGSA,A,3,00,00,00,00,00,00,00,00,00,,,,1.5,1.0,1.1*37
\c:1494514683524*6F\$GPGSV,3,1,12,05,75,048,43,02,49,083,48,29,61,302,42,20,53,241,41*71
\c:1494514683524*6F\$GPGSV,3,2,12,25,22,236,-0,12,08,202,35,21,09,286,-0,138,38,209,-0*57
\c:1494514683524*6F\$GPGSV,3,3,12,06,03,095,46,13,30,145,-0,120,05,102,41,15,14,183,39*5C
\c:1494514683557*6B\$GPZDA,235123.00,12,07,2017,00,00*62
\c:1494514683558*64\$GPGGA,235123,4157.8465,N,08736.5103,W,1,09,1.04,182.09,M,-34.239,M,,*7D
\c:1494514683558*64\$GPRMC,235123,A,4157.8465,N,08736.5103,W,1.5012,132.051,120717,,*3F
\c:1494514683558*64\$GPGSA,A,3,00,00,00,00,00,00,00,00,00,,,,1.5,1.0,1.1*37
\c:1494514684525*69\$GPGSV,3,1,12,05,75,048,44,02,49,083,48,29,61,302,43,20,53,241,41*77
\c:1494514684525*69\$GPGSV,3,2,12,25,22,236,-0,12,08,202,36,21,09,286,-0,138,38,209,-0*54
\c:1494514684525*69\$GPGSV,3,3,12,06,03,095,46,13,30,145,-0,120,05,102,40,15,14,183,39*5D
\c:1494514684554*6F\$GPZDA,235124.00,12,07,2017,00,00*65
\c:1494514684554*6F\$GPGGA,235124,4157.8464,N,08736.5099,W,1,09,1.04,181.89,M,-34.239,M,,*72
\c:1494514684554*6F\$GPRMC,235124,A,4157.8464,N,08736.5099,W,0.8645,112.965,120717,,*3F
\c:1494514684554*6F\$GPGSA,A,3,00,00,00,00,00,00,00,00,00,,,,1.5,1.0,1.1*37
\c:1494514685524*69\$GPGSV,3,1,12,05,75,048,44,02,49,083,47,29,61,302,42,20,53,241,41*79
\c:1494514685524*69\$GPGSV,3,2,12,25,22,236,-0,12,08,202,35,21,09,286,-0,138,38,209,-0*57
\c:1494514685524*69\$GPGSV,3,3,12,06,03,095,45,13,30,145,-0,120,05,102,39,15,14,183,-0*47
\c:1494514685551*6B\$GPZDA,235125.00,12,07,2017,00,00*64
\c:1494514685551*6B\$GPGGA,235125,4157.8462,N,08736.5094,W,1,09,1.04,181.63,M,-34.239,M,,*7C
\c:1494514685551*6B\$GPRMC,235125,A,4157.8462,N,08736.5094,W,1.3937,128.530,120717,,*30
\c:1494514685551*6B\$GPGSA,A,3,00,00,00,00,00,00,00,00,00,,,,1.5,1.0,1.1*37
\c:1494514686524*6A\$GPGSV,3,1,12,05,75,048,45,02,49,083,46,29,61,302,43,20,53,241,41*78
\c:1494514686524*6A\$GPGSV,3,2,12,25,22,236,-0,12,08,202,35,21,09,286,-0,138,38,209,-0*57
\c:1494514686524*6A\$GPGSV,3,3,12,06,03,095,45,13,30,145,-0,120,05,102,39,15,14,183,40*5E
\c:1494514686555*6C\$GPZDA,235126.00,12,07,2017,00,00*67
\c:1494514686555*6C\$GPGGA,235126,4157.8461,N,08736.5089,W,1,08,1.28,181.73,M,-34.239,M,,*7E
\c:1494514686555*6C\$GPRMC,235126,A,4157.8461,N,08736.5089,W,1.3079,114.073,120717,,*32
\c:1494514686555*6C\$GPGSA,A,3,00,00,00,00,00,00,00,00,,,,,2.0,1.3,1.6*35
\c:1494514687524*6B\$GPGSV,3,1,12,05,75,048,45,02,49,083,45,29,61,302,43,20,53,241,41*7B
\c:1494514687524*6B\$GPGSV,3,2,12,25,22,236,-0,12,08,202,34,21,09,286,-0,138,38,209,-0*56
\c:1494514687524*6B\$GPGSV,3,3,12,06,03,095,44,13,30,145,-0,120,05,102,-0,15,14,183,39*46
\c:1494514687559*61\$GPZDA,235127.00,12,07,2017,00,00*66
\c:1494514687559*61\$GPGGA,235127,4157.8460,N,08736.5084,W,1,08,1.28,181.52,M,-34.239,M,,*70
\c:1494514687559*61\$GPRMC,235127,A,4157.8460,N,08736.5084,W,1.2696,119.616,120717,,*31
\c:1494514687559*61\$GPGSA,A,3,00,00,00,00,00,00,00,00,,,,,2.0,1.3,1.6*35
\c:1494514688525*65\$GPGSV,3,1,12,05,75,048,46,02,49,083,46,29,61,302,43,20,53,241,41*7B
\c:1494514688525*65\$GPGSV,3,2,12,25,22,236,-0,12,08,202,35,21,09,286,-0,138,38,209,-0*57
\c:1494514688525*65\$GPGSV,3,3,12,06,03,095,44,13,30,145,-0,120,05,102,-0,15,14,183,39*46
\c:1494514688562*66\$GPZDA,235128.00,12,07,2017,00,00*69
\c:1494514688562*66\$GPGGA,235128,4157.8459,N,08736.5078,W,1,08,1.28,181.01,M,-34.239,M,,*70
\c:1494514688563*67\$GPRMC,235128,A,4157.8459,N,08736.5078,W,1.4801,117.653,120717,,*3E
\c:1494514688563*67\$GPGSA,A,3,00,00,00,00,00,00,00,00,,,,,2.0,1.3,1.6*35
\c:1494514689523*62\$GPGSV,3,1,12,05,75,048,46,02,49,083,46,29,61,302,43,20,53,242,41*78
\c:1494514689523*62\$GPGSV,3,2,12,25,22,236,-0,12,08,202,35,21,09,286,-0,138,38,209,-0*57
\c:1494514689523*62\$GPGSV,3,3,12,06,03,095,43,13,30,145,31,120,05,102,-0,15,14,183,38*5F
\c:1494514689553*65\$GPZDA,235129.00,12,07,2017,00,00*68
\c:1494514689553*65\$GPGGA,235129,4157.8459,N,08736.5073,W,1,07,1.39,180.83,M,-34.239,M,,*7E
\c:1494514689554*62\$GPRMC,235129,A,4157.8459,N,08736.5073,W,1.2601,116.312,120717,,*3D
\c:1494514689554*62\$GPGSA,A,3,00,00,00,00,00,00,00,,,,,,2.2,1.4,1.7*31
\c:1494514690524*6D\$GPGSV,3,1,12,05,75,048,46,02,49,083,45,29,61,302,43,20,53,242,41*7B
\c:1494514690524*6D\$GPGSV,3,2,12,25,22,236,-0,12,08,202,35,21,09,286,-0,138,38,209,-0*57
\c:1494514690525*6C\$GPGSV,3,3,12,06,03,095,43,13,30,145,31,120,05,102,-0,15,14,183,37*50
\c:1494514690553*6D\$GPZDA,235130.00,12,07,2017,00,00*60
\c:1494514690554*6A\$GPGGA,235130,4157.8458,N,08736.5067,W,1,08,1.28,180.44,M,-34.239,M,,*76
\c:1494514690554*6A\$GPRMC,235130,A,4157.8458,N,08736.5067,W,1.4638,114.887,120717,,*38
\c:1494514690554*6A\$GPGSA,A,3,00,00,00,00,00,00,00,00,,,,,2.0,1.3,1.6*35
\c:1494514691524*6C\$GPGSV,3,1,12,05,75,048,46,02,49,083,46,29,61,302,42,20,53,242,39*76
\c:1494514691525*6D\$GPGSV,3,2,12,25,22,236,-0,12,08,202,34,21,09,286,-0,138,38,209,-0*56
\c:1494514691525*6D\$GPGSV,3,3,12,06,03,095,42,13,30,145,31,120,05,102,-0,15,14,183,37*51
\c:1494514691557*68\$GPZDA,235131.00,12,07,2017,00,00*61
\c:1494514691557*68\$GPGGA,235131,4157.8458,N,08736.5062,W,1,08,1.28,180.03,M,-34.239,M,,*71
\c:1494514691557*68\$GPRMC,235131,A,4157.8458,N,08736.5062,W,1.4638,114.887,120717,,*3C
\c:1494514691557*68\$GPGSA,A,3,00,00,00,00,00,00,00,00,,,,,2.0,1.3,1.6*35
\c:1494514692525*6E\$GPGSV,3,1,12,05,75,048,46,02,49,083,47,29,61,302,42,20,53,242,40*79
\c:1494514692525*6E\$GPGSV,3,2,12,25,22,236,-0,12,08,202,36,21,09,286,-0,138,38,209,-0*54
\c:1494514692525*6E\$GPGSV,3,3,12,06,03,095,41,13,30,145,-0,120,05,102,-0,15,14,183,35*4F
\c:1494514692559*65\$GPZDA,235132.00,12,07,2017,00,00*62
\c:1494514692559*65\$GPGGA,235132,4157.8459,N,08736.5056,W,1,08,1.28,179.51,M,-34.239,M,,*75
\c:1494514692559*65\$GPRMC,235132,A,4157.8459,N,08736.5056,W,1.4638,114.887,120717,,*39
\c:1494514692559*65\$GPGSA,A,3,00,00,00,00,00,00,00,00,,,,,2.0,1.3,1.6*35
\c:1494514693525*6F\$GPGSV,3,1,12,05,75,048,45,02,49,083,45,29,61,302,43,20,53,242,40*79
\c:1494514693525*6F\$GPGSV,3,2,12,25,22,236,-0,12,08,202,36,21,10,287,-0,138,38,209,-0*5D
\c:1494514693525*6F\$GPGSV,3,3,12,06,03,095,41,13,30,145,-0,120,05,102,-0,15,14,183,35*4F
\c:1494514693556*6B\$GPZDA,235133.00,12,07,2017,00,00*63
\c:1494514693556*6B\$GPGGA,235133,4157.8459,N,08736.5049,W,1,08,1.28,179.12,M,-34.239,M,,*7D
\c:1494514693556*6B\$GPRMC,235133,A,4157.8459,N,08736.5049,W,1.6631,102.879,120717,,*3B
\c:1494514693556*6B\$GPGSA,A,3,00,00,00,00,00,00,00,00,,,,,2.0,1.3,1.6*35
\c:1494514694524*69\$GPGSV,3,1,12,05,75,048,45,02,49,083,46,29,61,302,44,20,53,242,39*73
\c:1494514694524*69\$GPGSV,3,2,12,25,22,236,-0,12,08,202,34,21,10,287,-0,138,38,209,-0*5F
\c:1494514694524*69\$GPGSV,3,3,12,06,03,095,40,13,30,145,-0,120,05,102,-0,15,14,183,36*4D
\c:1494514694554*6E\$GPZDA,235134.00,12,07,2017,00,00*64
\c:1494514694554*6E\$GPGGA,235134,4157.8460,N,08736.5042,W,1,08,1.28,178.65,M,-34.239,M,,*7A
\c:1494514694554*6E\$GPRMC,235134,A,4157.8460,N,08736.5042,W,1.6631,102.879,120717,,*3D
\c:1494514694554*6E\$GPGSA,A,3,00,00,00,00,00,00,00,00,,,,,2.0,1.3,1.6*35
\c:1494514695525*69\$GPGSV,3,1,12,05,75,048,46,02,49,083,45,29,61,302,44,20,53,242,39*73
\c:1494514695525*69\$GPGSV,3,2,12,25,22,236,-0,12,08,202,34,21,10,287,-0,138,38,209,36*47
\c:1494514695525*69\$GPGSV,3,3,12,06,03,095,40,13,30,145,-0,120,05,102,-0,15,14,183,36*4D
\c:1494514695557*6C\$GPZDA,235135.00,12,07,2017,00,00*65
\c:1494514695557*6C\$GPGGA,235135,4157.8461,N,08736.5036,W,1,08,1.28,178.27,M,-34.239,M,,*7F
\c:1494514695557*6C\$GPRMC,235135,A,4157.8461,N,08736.5036,W,1.6631,102.879,120717,,*3E
\c:1494514695557*6C\$GPGSA,A,3,00,00,00,00,00,00,00,00,,,,,2.0,1.3,1.6*35
\c:1494514696524*6B\$GPGSV,3,1,12,05,75,048,46,02,49,083,44,29,61,302,43,20,53,242,40*7B
\c:1494514696524*6B\$GPGSV,3,2,12,25,22,236,-0,12,08,202,33,21,10,287,-0,138,38,209,-0*58
\c:1494514696524*6B\$GPGSV,3,3,12,06,03,095,40,13,30,145,-0,120,05,102,-0,15,14,183,35*4E
\c:1494514697524*6A\$GPGSV,3,1,12,05,75,048,47,02,49,083,44,29,61,302,43,20,53,242,40*7A
\c:1494514697524*6A\$GPGSV,3,2,12,25,22,236,-0,12,08,202,32,21,10,287,-0,138,38,209,-0*59
\c:1494514697524*6A\$GPGSV,3,3,12,06,03,095,40,13,30,145,30,120,05,102,-0,15,14,183,-0*4B
\c:1494514697565*6F\$GPZDA,235137.00,12,07,2017,00,00*67
\c:1494514697565*6F\$GPGGA,235137,4157.8462,N,08736.5023,W,1,08,1.28,177.34,M,-34.239,M,,*77
\c:1494514697565*6F\$GPRMC,235137,A,4157.8462,N,08736.5023,W,1.6642,106.086,120717,,*33
\c:1494514697566*6C\$GPGSA,A,3,00,00,00,00,00,00,00,00,,,,,2.0,1.3,1.6*35
\c:1494514698524*65\$GPGSV,3,1,12,05,75,048,47,02,49,083,44,29,61,302,44,20,53,242,40*7D
\c:1494514698524*65\$GPGSV,3,2,12,25,22,236,-0,12,08,202,32,21,10,287,-0,138,38,209,-0*59
\c:1494514698524*65\$GPGSV,3,3,12,06,03,095,40,13,30,145,30,120,05,102,-0,15,14,183,-0*4B
\c:1494514698553*65\$GPZDA,235138.00,12,07,2017,00,00*68
\c:1494514698553*65\$GPGGA,235138,4157.8461,N,08736.5016,W,1,08,1.28,177.09,M,-34.239,M,,*73
\c:1494514698554*62\$GPRMC,235138,A,4157.8461,N,08736.5016,W,1.6417,109.132,120717,,*3A
\c:1494514698554*62\$GPGSA,A,3,00,00,00,00,00,00,00,00,,,,,2.0,1.3,1.6*35
\c:1494514699524*64\$GPGSV,3,1,12,05,75,048,47,02,49,083,44,29,61,302,44,20,53,242,41*7C
\c:1494514699524*64\$GPGSV,3,2,12,25,22,236,-0,12,08,202,32,21,10,287,-0,138,38,209,-0*59
\c:1494514699525*65\$GPGSV,3,3,12,06,03,095,40,13,30,145,30,120,05,102,-0,15,14,183,-0*4B
\c:1494514699549*6F\$GPZDA,235139.00,12,07,2017,00,00*69
\c:1494514699550*67\$GPGGA,235139,4157.8460,N,08736.5011,W,1,08,1.28,177.06,M,-34.239,M,,*7B
\c:1494514699550*67\$GPRMC,235139,A,4157.8460,N,08736.5011,W,1.4704,111.759,120717,,*3C
\c:1494514699550*67\$GPGSA,A,3,00,00,00,00,00,00,00,00,,,,,2.0,1.3,1.6*35
\c:1494514700524*65\$GPGSV,3,1,12,05,75,048,47,02,49,083,46,29,61,302,44,20,53,242,41*7E
\c:1494514700525*64\$GPGSV,3,2,12,25,22,236,-0,12,08,202,-0,21,10,287,-0,138,38,209,-0*45
\c:1494514700525*64\$GPGSV,3,3,12,06,03,095,40,13,30,145,30,120,05,102,37,15,14,183,42*49
\c:1494514700559*6F\$GPZDA,235140.00,12,07,2017,00,00*67
\c:1494514700559*6F\$GPGGA,235140,4157.8459,N,08736.5004,W,1,08,1.28,176.89,M,-34.239,M,,*7D
\c:1494514700559*6F\$GPRMC,235140,A,4157.8459,N,08736.5004,W,1.5962,112.630,120717,,*3E
\c:1494514700559*6F\$GPGSA,A,3,00,00,00,00,00,00,00,00,,,,,2.0,1.3,1.6*35
\c:1494514701524*64\$GPGSV,3,1,12,05,75,048,47,02,49,083,46,29,61,302,44,20,53,242,41*7E
\c:1494514701525*65\$GPGSV,3,2,12,25,22,236,-0,12,08,202,37,21,10,287,-0,138,38,209,-0*5C
\c:1494514701525*65\$GPGSV,3,3,12,06,03,095,40,13,30,145,-0,120,05,102,38,15,14,183,41*5B
\c:1494514701558*6F\$GPZDA,235141.00,12,07,2017,00,00*66
\c:1494514701558*6F\$GPGGA,235141,4157.8457,N,08736.4998,W,1,08,1.28,177.03,M,-34.239,M,,*7C
\c:1494514701558*6F\$GPRMC,235141,A,4157.8457,N,08736.4998,W,1.6130,114.551,120717,,*32
\c:1494514701558*6F\$GPGSA,A,3,00,00,00,00,00,00,00,00,,,,,2.0,1.3,1.6*35
\c:1494514702525*66\$GPGSV,3,1,12,05,75,048,47,02,49,083,46,29,61,302,43,20,53,242,41*79
\c:1494514702525*66\$GPGSV,3,2,12,25,22,236,-0,12,08,202,37,21,10,287,-0,138,38,209,-0*5C
\c:1494514702525*66\$GPGSV,3,3,12,06,03,095,41,13,30,145,-0,120,05,102,37,15,14,183,41*55
\c:1494514702555*61\$GPZDA,235142.00,12,07,2017,00,00*65
\c:1494514702555*61\$GPGGA,235142,4157.8455,N,08736.4993,W,1,08,1.28,177.27,M,-34.239,M,,*70
\c:1494514702555*61\$GPRMC,235142,A,4157.8455,N,08736.4993,W,1.3490,116.485,120717,,*38
\c:1494514702555*61\$GPGSA,A,3,00,00,00,00,00,00,00,00,,,,,2.0,1.3,1.6*35
\c:1494514703524*66\$GPGSV,3,1,12,05,75,048,47,02,49,083,46,29,61,302,43,20,53,242,40*78
\c:1494514703524*66\$GPGSV,3,2,12,25,22,236,-0,12,08,202,-0,21,10,287,-0,138,38,209,-0*45
\c:1494514703524*66\$GPGSV,3,3,12,06,03,095,40,13,30,145,-0,120,05,102,-0,15,14,183,41*4D
\c:1494514703553*66\$GPZDA,235143.00,12,07,2017,00,00*64
\c:1494514703553*66\$GPGGA,235143,4157.8452,N,08736.4987,W,1,08,1.28,177.28,M,-34.239,M,,*7C
\c:1494514703553*66\$GPRMC,235143,A,4157.8452,N,08736.4987,W,1.5754,118.105,120717,,*35
\c:1494514703553*66\$GPGSA,A,3,00,00,00,00,00,00,00,00,,,,,2.0,1.3,1.6*35
\c:1494514704525*60\$GPGSV,3,1,12,05,75,048,47,02,49,083,45,29,61,302,43,20,53,242,40*7B
\c:1494514704525*60\$GPGSV,3,2,12,25,22,236,-0,12,08,202,36,21,10,287,-0,138,38,209,-0*5D
\c:1494514704525*60\$GPGSV,3,3,12,06,03,095,41,13,30,145,-0,120,05,102,-0,15,14,183,41*4C
\c:1494514704552*60\$GPZDA,235144.00,12,07,2017,00,00*63
\c:1494514704552*60\$GPGGA,235144,4157.8449,N,08736.4981,W,1,08,1.28,177.53,M,-34.239,M,,*7B
\c:1494514704552*60\$GPRMC,235144,A,4157.8449,N,08736.4981,W,1.5526,119.566,120717,,*39
\c:1494514704552*60\$GPGSA,A,3,00,00,00,00,00,00,00,00,,,,,2.0,1.3,1.6*35
\c:1494514705524*60\$GPGSV,3,1,12,05,75,048,47,02,49,083,44,29,61,302,42,20,53,242,41*7A
\c:1494514705524*60\$GPGSV,3,2,12,25,22,236,-0,12,08,202,35,21,10,287,-0,138,38,209,-0*5E
\c:1494514705524*60\$GPGSV,3,3,12,06,03,095,41,13,30,145,-0,120,05,102,-0,15,14,183,41*4C
\c:1494514705561*61\$GPZDA,235145.00,12,07,2017,00,00*62
\c:1494514705561*61\$GPGGA,235145,4157.8446,N,08736.4974,W,1,08,1.28,177.96,M,-34.239,M,,*76
\c:1494514705561*61\$GPRMC,235145,A,4157.8446,N,08736.4974,W,1.4005,114.170,120717,,*36
\c:1494514705561*61\$GPGSA,A,3,00,00,00,00,00,00,00,00,,,,,2.0,1.3,1.6*35
\c:1494514706525*62\$GPGSV,3,1,12,05,75,048,48,02,49,083,45,29,61,302,43,20,53,242,40*74
\c:1494514706525*62\$GPGSV,3,2,12,25,22,236,-0,12,08,202,35,21,10,287,-0,138,38,209,-0*5E
\c:1494514706525*62\$GPGSV,3,3,12,06,03,095,40,13,30,145,-0,120,05,102,39,15,14,183,40*5B
\c:1494514706556*66\$GPZDA,235146.00,12,07,2017,00,00*61
\c:1494514706556*66\$GPGGA,235146,4157.8444,N,08736.4968,W,1,08,1.28,177.77,M,-34.239,M,,*75
\c:1494514706556*66\$GPRMC,235146,A,4157.8444,N,08736.4968,W,1.5540,120.251,120717,,*38
\c:1494514706557*67\$GPGSA,A,3,00,00,00,00,00,00,00,00,,,,,2.0,1.3,1.6*35
\c:1494514707524*62\$GPGSV,3,1,12,05,75,048,48,02,49,083,45,29,61,302,43,20,53,242,40*74
\c:1494514707524*62\$GPGSV,3,2,12,25,22,236,-0,12,08,202,34,21,10,287,-0,138,38,209,-0*5F
\c:1494514707524*62\$GPGSV,3,3,12,06,03,095,40,13,30,145,-0,120,05,102,38,15,14,183,40*5A
\c:1494514707558*69\$GPZDA,235147.00,12,07,2017,00,00*60
\c:1494514707558*69\$GPGGA,235147,4157.8442,N,08736.4962,W,1,07,1.39,177.95,M,-34.239,M,,*7B
\c:1494514707558*69\$GPRMC,235147,A,4157.8442,N,08736.4962,W,1.5192,112.749,120717,,*33
\c:1494514707559*68\$GPGSA,A,3,00,00,00,00,00,00,00,,,,,,2.2,1.4,1.7*31
\c:1494514708525*6C\$GPGSV,3,1,12,05,75,048,48,02,49,083,44,29,61,302,43,20,53,242,40*75
\c:1494514708525*6C\$GPGSV,3,2,12,25,21,235,-0,12,08,202,34,21,10,287,-0,138,38,209,35*44
\c:1494514708525*6C\$GPGSV,3,3,12,06,03,095,39,13,30,145,-0,120,05,102,39,15,14,183,39*5B
\c:1494514708555*6B\$GPZDA,235148.00,12,07,2017,00,00*6F
\c:1494514708555*6B\$GPGGA,235148,4157.8440,N,08736.4957,W,1,07,1.39,177.93,M,-34.239,M,,*76
\c:1494514708556*68\$GPRMC,235148,A,4157.8440,N,08736.4957,W,1.5442,116.991,120717,,*3F
\c:1494514708556*68\$GPGSA,A,3,00,00,00,00,00,00,00,,,,,,2.2,1.4,1.7*31
\c:1494514709524*6C\$GPGSV,3,1,12,05,75,048,48,02,49,083,44,29,61,302,43,20,53,242,39*7B
\c:1494514709525*6D\$GPGSV,3,2,12,25,21,235,-0,12,08,202,-0,21,10,287,-0,138,38,209,-0*45
\c:1494514709525*6D\$GPGSV,3,3,12,06,03,095,38,13,30,145,-0,120,05,102,39,15,14,183,38*5B
\c:1494514709553*6C\$GPZDA,235149.00,12,07,2017,00,00*6E
\c:1494514709554*6B\$GPGGA,235149,4157.8438,N,08736.4951,W,1,07,1.39,178.01,M,-34.239,M,,*7A
\c:1494514709554*6B\$GPRMC,235149,A,4157.8438,N,08736.4951,W,1.5442,116.991,120717,,*37
\c:1494514709554*6B\$GPGSA,A,3,00,00,00,00,00,00,00,,,,,,2.2,1.4,1.7*31
\c:1494514710524*64\$GPGSV,3,1,12,05,75,048,47,02,49,083,45,29,61,302,44,20,53,242,39*72
\c:1494514710525*65\$GPGSV,3,2,12,25,21,235,-0,12,08,202,-0,21,10,287,-0,138,38,209,-0*45
\c:1494514710525*65\$GPGSV,3,3,12,06,03,095,40,13,30,145,-0,120,05,102,38,15,14,183,-0*43
\c:1494514710554*63\$GPZDA,235150.00,12,07,2017,00,00*66
\c:1494514710555*62\$GPGGA,235150,4157.8437,N,08736.4946,W,1,07,1.39,178.01,M,-34.239,M,,*7B
\c:1494514710555*62\$GPRMC,235150,A,4157.8437,N,08736.4946,W,1.3744,112.246,120717,,*30
\c:1494514710555*62\$GPGSA,A,3,00,00,00,00,00,00,00,,,,,,2.2,1.4,1.7*31
\c:1494514711525*64\$GPGSV,3,1,12,05,75,048,46,02,49,083,46,29,61,302,44,20,53,242,40*7E
\c:1494514711525*64\$GPGSV,3,2,12,25,21,235,-0,12,08,202,-0,21,10,287,-0,138,38,209,-0*45
\c:1494514711525*64\$GPGSV,3,3,12,06,03,095,41,13,30,145,-0,120,05,102,38,15,14,183,-0*42
\c:1494514711549*6E\$GPZDA,235151.00,12,07,2017,00,00*67
\c:1494514711550*66\$GPGGA,235151,4157.8436,N,08736.4941,W,1,07,1.39,177.97,M,-34.239,M,,*7C
\c:1494514711550*66\$GPRMC,235151,A,4157.8436,N,08736.4941,W,1.5677,116.435,120717,,*36
\c:1494514711550*66\$GPGSA,A,3,00,00,00,00,00,00,00,,,,,,2.2,1.4,1.7*31
\c:1494514712525*67\$GPGSV,3,1,12,05,75,048,47,02,49,083,46,29,61,302,44,20,53,242,40*7F
\c:1494514712525*67\$GPGSV,3,2,12,25,21,235,-0,12,08,202,-0,21,10,287,-0,138,38,209,-0*45
\c:1494514712525*67\$GPGSV,3,3,12,06,03,095,41,13,30,145,-0,120,05,102,37,15,14,183,-0*4D
\c:1494514712551*64\$GPZDA,235152.00,12,07,2017,00,00*64
\c:1494514712552*67\$GPGGA,235152,4157.8434,N,08736.4935,W,1,07,1.39,177.88,M,-34.239,M,,*70
\c:1494514712552*67\$GPRMC,235152,A,4157.8434,N,08736.4935,W,1.5726,119.081,120717,,*35
\c:1494514712552*67\$GPGSA,A,3,00,00,00,00,00,00,00,,,,,,2.2,1.4,1.7*31
\c:1494514713524*67\$GPGSV,3,1,12,05,75,048,47,02,49,083,45,29,61,302,44,20,53,242,40*7C
\c:1494514713524*67\$GPGSV,3,2,12,25,21,235,-0,12,08,202,-0,21,10,287,-0,138,38,209,-0*45
\c:1494514713524*67\$GPGSV,3,3,12,06,03,095,42,13,30,145,-0,120,05,102,37,15,14,183,36*56
\c:1494514713555*61\$GPZDA,235153.00,12,07,2017,00,00*65
\c:1494514713556*62\$GPGGA,235153,4157.8432,N,08736.4930,W,1,07,1.39,178.06,M,-34.239,M,,*7B
\c:1494514713556*62\$GPRMC,235153,A,4157.8432,N,08736.4930,W,1.4235,125.265,120717,,*36
\c:1494514713556*62\$GPGSA,A,3,00,00,00,00,00,00,00,,,,,,2.2,1.4,1.7*31
\c:1494514714525*61\$GPGSV,3,1,12,05,75,048,46,02,49,083,45,29,61,302,44,20,53,242,40*7D
\c:1494514714525*61\$GPGSV,3,2,12,25,21,235,-0,12,08,202,-0,21,10,287,-0,138,38,209,-0*45
\c:1494514714525*61\$GPGSV,3,3,12,06,03,095,43,13,30,145,-0,120,05,102,36,15,14,183,36*56
\c:1494514714556*65\$GPZDA,235154.00,12,07,2017,00,00*62
\c:1494514714556*65\$GPGGA,235154,4157.8431,N,08736.4925,W,1,07,1.39,177.89,M,-34.239,M,,*73
\c:1494514714556*65\$GPRMC,235154,A,4157.8431,N,08736.4925,W,1.4447,118.228,120717,,*32
\c:1494514714556*65\$GPGSA,A,3,00,00,00,00,00,00,00,,,,,,2.2,1.4,1.7*31
\c:1494514715524*61\$GPGSV,3,1,12,05,75,048,47,02,49,083,44,29,61,302,44,20,53,242,40*7D
\c:1494514715524*61\$GPGSV,3,2,12,25,21,235,-0,12,08,202,-0,21,10,287,-0,138,38,209,-0*45
\c:1494514715524*61\$GPGSV,3,3,12,06,03,095,43,13,30,145,-0,120,05,102,-0,15,14,183,-0*56
\c:1494514715549*6A\$GPZDA,235155.00,12,07,2017,00,00*63
\c:1494514715549*6A\$GPGGA,235155,4157.8430,N,08736.4920,W,1,06,3.15,177.79,M,-34.239,M,,*74
\c:1494514715549*6A\$GPRMC,235155,A,4157.8430,N,08736.4920,W,1.5559,121.625,120717,,*3B
\c:1494514715549*6A\$GPGSA,A,3,00,00,00,00,00,00,,,,,,,5.1,3.1,4.0*30
\c:1494514716524*62\$GPGSV,3,1,12,05,75,048,47,02,49,083,44,29,61,302,44,20,53,242,39*73
\c:1494514716524*62\$GPGSV,3,2,12,25,21,235,-0,12,08,202,-0,21,10,287,-0,138,38,209,-0*45
\c:1494514716524*62\$GPGSV,3,3,12,06,03,095,44,13,30,145,-0,120,05,102,-0,15,14,183,-0*51
\c:1494514716550*61\$GPZDA,235156.00,12,07,2017,00,00*60
\c:1494514716550*61\$GPGGA,235156,4157.8429,N,08736.4915,W,1,06,3.15,177.74,M,-34.239,M,,*74
\c:1494514716550*61\$GPRMC,235156,A,4157.8429,N,08736.4915,W,1.4920,122.407,120717,,*34
\c:1494514716551*60\$GPGSA,A,3,00,00,00,00,00,00,,,,,,,5.1,3.1,4.0*30
\c:1494514717524*63\$GPGSV,3,1,12,05,75,048,47,02,49,083,44,29,61,302,45,20,53,242,39*72
\c:1494514717524*63\$GPGSV,3,2,12,25,21,235,-0,12,08,202,-0,21,10,287,-0,138,38,209,-0*45
\c:1494514717524*63\$GPGSV,3,3,12,06,03,095,45,13,30,145,-0,120,05,102,-0,15,14,183,30*4E
\c:1494514717553*63\$GPZDA,235157.00,12,07,2017,00,00*61
\c:1494514717553*63\$GPGGA,235157,4157.8427,N,08736.4909,W,1,06,3.15,177.56,M,-34.239,M,,*76
\c:1494514717554*64\$GPRMC,235157,A,4157.8427,N,08736.4909,W,1.5853,123.233,120717,,*32
\c:1494514717554*64\$GPGSA,A,3,00,00,00,00,00,00,,,,,,,5.1,3.1,4.0*30
\c:1494514718524*6C\$GPGSV,3,1,12,05,75,048,47,02,49,083,44,29,61,302,45,20,53,242,40*7C
\c:1494514718524*6C\$GPGSV,3,2,12,25,21,235,-0,12,08,202,-0,21,10,287,-0,138,38,209,-0*45
\c:1494514718524*6C\$GPGSV,3,3,12,06,03,095,45,13,30,145,-0,120,05,102,-0,15,14,183,30*4E
\c:1494514718559*66\$GPZDA,235158.00,12,07,2017,00,00*6E
\c:1494514718560*6C\$GPGGA,235158,4157.8426,N,08736.4904,W,1,06,3.15,177.57,M,-34.239,M,,*74
\c:1494514718560*6C\$GPRMC,235158,A,4157.8426,N,08736.4904,W,1.5498,117.770,120717,,*3F
\c:1494514718560*6C\$GPGSA,A,3,00,00,00,00,00,00,,,,,,,5.1,3.1,4.0*30
\c:1494514719524*6D\$GPGSV,3,1,12,05,75,048,47,02,49,083,44,29,61,302,45,20,53,242,40*7C
\c:1494514719525*6C\$GPGSV,3,2,12,25,21,235,-0,12,08,202,-0,21,10,287,-0,138,38,209,-0*45
\c:1494514719525*6C\$GPGSV,3,3,12,06,03,095,46,13,30,145,-0,120,05,102,-0,15,14,183,31*4C
\c:1494514719555*6B\$GPZDA,235159.00,12,07,2017,00,00*6F
\c:1494514719556*68\$GPGGA,235159,4157.8423,N,08736.4898,W,1,06,3.15,177.48,M,-34.239,M,,*7A
\c:1494514719556*68\$GPRMC,235159,A,4157.8423,N,08736.4898,W,1.5662,123.193,120717,,*34
\c:1494514719556*68\$GPGSA,A,3,00,00,00,00,00,00,,,,,,,5.1,3.1,4.0*30
\c:1494514720524*67\$GPGSV,3,1,12,05,75,048,47,02,49,083,44,29,61,302,45,20,53,242,40*7C
\c:1494514720525*66\$GPGSV,3,2,12,25,21,235,-0,12,08,202,-0,21,10,287,-0,138,38,209,-0*45
\c:1494514720525*66\$GPGSV,3,3,12,06,03,095,45,13,30,145,-0,120,05,102,40,15,14,183,34*53
\c:1494514720552*66\$GPZDA,235200.00,12,07,2017,00,00*60
\c:1494514720553*67\$GPGGA,235200,4157.8420,N,08736.4892,W,1,06,3.15,177.49,M,-34.239,M,,*7D
\c:1494514720553*67\$GPRMC,235200,A,4157.8420,N,08736.4892,W,1.7747,126.082,120717,,*32
\c:1494514720553*67\$GPGSA,A,3,00,00,00,00,00,00,,,,,,,5.1,3.1,4.0*30
\c:1494514721524*66\$GPGSV,3,1,12,05,75,048,47,02,49,083,43,29,61,302,45,20,53,242,40*7B
\c:1494514721524*66\$GPGSV,3,2,12,25,21,235,-0,12,08,202,-0,21,10,287,-0,138,38,209,-0*45
\c:1494514721524*66\$GPGSV,3,3,12,06,03,095,47,13,30,145,-0,120,05,102,40,15,14,183,33*56
\c:1494514721553*66\$GPZDA,235201.00,12,07,2017,00,00*61
\c:1494514721553*66\$GPGGA,235201,4157.8418,N,08736.4887,W,1,06,3.15,177.52,M,-34.239,M,,*79
\c:1494514721553*66\$GPRMC,235201,A,4157.8418,N,08736.4887,W,1.5060,114.915,120717,,*3A
\c:1494514721553*66\$GPGSA,A,3,00,00,00,00,00,00,,,,,,,5.1,3.1,4.0*30
\c:1494514722525*64\$GPGSV,3,1,12,05,75,048,46,02,49,083,43,29,61,302,45,20,53,242,40*7A
\c:1494514722525*64\$GPGSV,3,2,12,25,21,235,-0,12,08,202,-0,21,10,287,-0,138,38,209,-0*45
\c:1494514722525*64\$GPGSV,3,3,12,06,03,095,46,13,30,145,-0,120,05,102,39,15,14,183,-0*44
\c:1494514722559*6F\$GPZDA,235202.00,12,07,2017,00,00*62
\c:1494514722559*6F\$GPGGA,235202,4157.8416,N,08736.4882,W,1,06,3.15,177.45,M,-34.239,M,,*77
\c:1494514722559*6F\$GPRMC,235202,A,4157.8416,N,08736.4882,W,1.4040,123.568,120717,,*33
\c:1494514722559*6F\$GPGSA,A,3,00,00,00,00,00,00,,,,,,,5.1,3.1,4.0*30
\c:1494514723525*65\$GPGSV,3,1,12,05,75,048,47,02,49,083,44,29,62,300,44,20,53,242,40*7C
\c:1494514723525*65\$GPGSV,3,2,12,25,21,235,-0,12,08,202,-0,21,10,287,-0,138,38,209,-0*45
\c:1494514723525*65\$GPGSV,3,3,12,06,03,095,45,13,30,145,-0,120,05,102,38,15,14,183,-0*46
\c:1494514723550*67\$GPZDA,235203.00,12,07,2017,00,00*63
\c:1494514723550*67\$GPGGA,235203,4157.8414,N,08736.4876,W,1,06,3.33,177.61,M,-34.239,M,,*7D
\c:1494514723550*67\$GPRMC,235203,A,4157.8414,N,08736.4876,W,1.6661,125.798,120717,,*37
\c:1494514723550*67\$GPGSA,A,3,00,00,00,00,00,00,,,,,,,5.3,3.3,4.2*32
\c:1494514724524*63\$GPGSV,3,1,12,05,75,048,46,02,49,083,46,29,62,300,45,20,53,242,41*7F
\c:1494514724524*63\$GPGSV,3,2,12,25,21,235,-0,12,08,202,-0,21,10,287,-0,138,38,209,-0*45
\c:1494514724524*63\$GPGSV,3,3,12,06,03,095,44,13,30,145,31,120,05,102,38,15,14,183,30*46
\c:1494514724556*66\$GPZDA,235204.00,12,07,2017,00,00*64
\c:1494514724556*66\$GPGGA,235204,4157.8412,N,08736.4871,W,1,06,3.33,177.12,M,-34.239,M,,*7F
\c:1494514724557*67\$GPRMC,235204,A,4157.8412,N,08736.4871,W,1.6836,119.093,120717,,*3E
\c:1494514724557*67\$GPGSA,A,3,00,00,00,00,00,00,,,,,,,5.3,3.3,4.2*32
\c:1494514725524*62\$GPGSV,3,1,12,05,75,048,46,02,49,083,45,29,62,300,45,20,53,242,41*7C
\c:1494514725524*62\$GPGSV,3,2,12,25,21,235,-0,12,08,202,-0,21,10,287,-0,138,38,209,-0*45
\c:1494514725524*62\$GPGSV,3,3,12,06,03,095,44,13,30,145,32,120,05,102,37,15,14,183,30*4A
\c:1494514725552*63\$GPZDA,235205.00,12,07,2017,00,00*65
\c:1494514725552*63\$GPGGA,235205,4157.8410,N,08736.4866,W,1,07,1.39,176.92,M,-34.239,M,,*7A
\c:1494514725552*63\$GPRMC,235205,A,4157.8410,N,08736.4866,W,1.5459,121.575,120717,,*3B
\c:1494514725552*63\$GPGSA,A,3,00,00,00,00,00,00,00,,,,,,2.2,1.4,1.7*31
\c:1494514726525*60\$GPGSV,3,1,12,05,75,048,46,02,49,083,46,29,62,300,44,20,53,242,40*7F
\c:1494514726525*60\$GPGSV,3,2,12,25,21,235,-0,12,08,202,-0,21,10,287,-0,138,38,209,-0*45
\c:1494514726525*60\$GPGSV,3,3,12,06,03,095,44,13,30,145,33,120,05,102,38,15,14,183,31*45
\c:1494514726553*61\$GPZDA,235206.00,12,07,2017,00,00*66
\c:1494514726553*61\$GPGGA,235206,4157.8408,N,08736.4861,W,1,07,1.39,176.89,M,-34.239,M,,*7D
\c:1494514726553*61\$GPRMC,235206,A,4157.8408,N,08736.4861,W,1.5054,126.180,120717,,*36
\c:1494514726554*66\$GPGSA,A,3,00,00,00,00,00,00,00,,,,,,2.2,1.4,1.7*31
\c:1494514727524*60\$GPGSV,3,1,12,05,75,048,46,02,49,083,45,29,62,300,45,20,53,242,41*7C
\c:1494514727524*60\$GPGSV,3,2,12,25,21,235,-0,12,08,202,-0,21,10,287,-0,138,38,209,-0*45
\c:1494514727524*60\$GPGSV,3,3,12,06,03,095,45,13,30,145,33,120,05,102,37,15,14,183,31*4B
\c:1494514727556*65\$GPZDA,235207.00,12,07,2017,00,00*67
\c:1494514727557*64\$GPGGA,235207,4157.8407,N,08736.4856,W,1,07,1.39,176.73,M,-34.239,M,,*72
\c:1494514727557*64\$GPRMC,235207,A,4157.8407,N,08736.4856,W,1.5153,119.174,120717,,*3D
\c:1494514727557*64\$GPGSA,A,3,00,00,00,00,00,00,00,,,,,,2.2,1.4,1.7*31
\c:1494514728524*6F\$GPGSV,3,1,12,05,75,048,46,02,49,083,43,29,62,300,45,20,53,242,41*7A
\c:1494514728524*6F\$GPGSV,3,2,12,25,21,235,-0,12,08,202,-0,21,10,287,-0,138,38,209,-0*45
\c:1494514728525*6E\$GPGSV,3,3,12,06,03,095,44,13,30,145,33,120,05,102,37,15,14,183,-0*55
\c:1494514728554*68\$GPZDA,235208.00,12,07,2017,00,00*68
\c:1494514728555*69\$GPGGA,235208,4157.8405,N,08736.4850,W,1,07,1.39,176.61,M,-34.239,M,,*7A
\c:1494514728555*69\$GPRMC,235208,A,4157.8405,N,08736.4850,W,1.7155,122.079,120717,,*36
\c:1494514728555*69\$GPGSA,A,3,00,00,00,00,00,00,00,,,,,,2.2,1.4,1.7*31
\c:1494514729525*6F\$GPGSV,3,1,12,05,75,048,46,02,49,083,43,29,62,300,45,20,53,242,41*7A
\c:1494514729526*6C\$GPGSV,3,2,12,25,21,235,31,12,08,202,-0,21,10,287,-0,138,38,209,-0*5A
\c:1494514729526*6C\$GPGSV,3,3,12,06,03,095,44,13,30,145,32,120,05,102,37,15,14,183,-0*54
\c:1494514729566*68\$GPZDA,235209.00,12,07,2017,00,00*69
\c:1494514729566*68\$GPGGA,235209,4157.8403,N,08736.4845,W,1,07,1.39,176.45,M,-34.239,M,,*7F
\c:1494514729566*68\$GPRMC,235209,A,4157.8403,N,08736.4845,W,1.4578,118.365,120717,,*3A
\c:1494514729566*68\$GPGSA,A,3,00,00,00,00,00,00,00,,,,,,2.2,1.4,1.7*31
\c:1494514730525*67\$GPGSV,3,1,12,05,75,048,47,02,49,083,44,29,62,300,45,20,53,242,41*7C
\c:1494514730525*67\$GPGSV,3,2,12,25,21,235,31,12,08,202,-0,21,10,287,-0,138,38,209,-0*5A
\c:1494514730525*67\$GPGSV,3,3,12,06,03,095,44,13,30,145,32,120,05,102,37,15,14,183,34*4E
\c:1494514730556*63\$GPZDA,235210.00,12,07,2017,00,00*61
\c:1494514730557*62\$GPGGA,235210,4157.8400,N,08736.4840,W,1,08,1.28,176.43,M,-34.239,M,,*78
\c:1494514730557*62\$GPRMC,235210,A,4157.8400,N,08736.4840,W,1.5982,127.460,120717,,*32
\c:1494514730557*62\$GPGSA,A,3,00,00,00,00,00,00,00,00,,,,,2.0,1.3,1.6*35
\c:1494514731525*66\$GPGSV,3,1,12,05,75,048,46,02,49,083,44,29,62,300,45,20,53,242,41*7D
\c:1494514731525*66\$GPGSV,3,2,12,25,21,235,-0,12,08,202,-0,21,10,287,-0,138,38,209,-0*45
\c:1494514731525*66\$GPGSV,3,3,12,06,03,095,44,13,30,145,32,120,05,102,36,15,14,183,36*4D
\c:1494514731561*66\$GPZDA,235211.00,12,07,2017,00,00*60
\c:1494514731561*66\$GPGGA,235211,4157.8397,N,08736.4835,W,1,08,1.28,176.46,M,-34.239,M,,*77
\c:1494514731561*66\$GPRMC,235211,A,4157.8397,N,08736.4835,W,1.7523,121.298,120717,,*3A
\c:1494514731561*66\$GPGSA,A,3,00,00,00,00,00,00,00,00,,,,,2.0,1.3,1.6*35
\c:1494514732525*65\$GPGSV,3,1,12,05,75,048,46,02,49,083,44,29,62,300,45,20,53,242,41*7D
\c:1494514732525*65\$GPGSV,3,2,12,25,21,235,-0,12,08,202,-0,21,10,287,-0,138,38,209,-0*45
\c:1494514732525*65\$GPGSV,3,3,12,06,03,095,44,13,30,145,32,120,05,102,37,15,14,183,37*4D
\c:1494514732551*66\$GPZDA,235212.00,12,07,2017,00,00*63
\c:1494514732551*66\$GPGGA,235212,4157.8396,N,08736.4829,W,1,08,1.28,176.24,M,-34.239,M,,*7C
\c:1494514732551*66\$GPRMC,235212,A,4157.8396,N,08736.4829,W,1.5840,118.211,120717,,*34
\c:1494514732551*66\$GPGSA,A,3,00,00,00,00,00,00,00,00,,,,,2.0,1.3,1.6*35
\c:1494514733524*65\$GPGSV,3,1,12,05,74,047,46,02,49,083,44,29,62,300,44,20,53,242,41*72
\c:1494514733524*65\$GPGSV,3,2,12,25,21,235,-0,12,08,202,-0,21,10,287,-0,138,38,209,-0*45
\c:1494514733524*65\$GPGSV,3,3,12,06,03,095,45,13,30,145,-0,120,05,102,37,15,14,183,37*50
\c:1494514733550*66\$GPZDA,235213.00,12,07,2017,00,00*62
\c:1494514733550*66\$GPGGA,235213,4157.8393,N,08736.4825,W,1,08,1.28,176.38,M,-34.239,M,,*79
\c:1494514733550*66\$GPRMC,235213,A,4157.8393,N,08736.4825,W,1.5720,129.298,120717,,*36
\c:1494514733550*66\$GPGSA,A,3,00,00,00,00,00,00,00,00,,,,,2.0,1.3,1.6*35
\c:1494514734524*62\$GPGSV,3,1,12,05,74,047,45,02,49,083,45,29,62,300,44,20,53,242,41*70
\c:1494514734524*62\$GPGSV,3,2,12,25,21,235,-0,12,08,202,-0,21,10,287,-0,138,38,209,-0*45
\c:1494514734524*62\$GPGSV,3,3,12,06,03,095,45,13,30,145,-0,120,05,102,38,15,14,183,38*50
\c:1494514734550*61\$GPZDA,235214.00,12,07,2017,00,00*65
\c:1494514734550*61\$GPGGA,235214,4157.8391,N,08736.4820,W,1,08,1.28,176.39,M,-34.239,M,,*78
\c:1494514734550*61\$GPRMC,235214,A,4157.8391,N,08736.4820,W,1.5257,119.516,120717,,*31
\c:1494514734551*60\$GPGSA,A,3,00,00,00,00,00,00,00,00,,,,,2.0,1.3,1.6*35
\c:1494514735524*63\$GPGSV,3,1,12,05,74,047,45,02,49,083,46,29,62,300,44,20,53,242,41*73
\c:1494514735524*63\$GPGSV,3,2,12,25,21,235,-0,12,08,202,33,21,10,287,-0,138,38,209,-0*58
\c:1494514735524*63\$GPGSV,3,3,12,06,03,095,46,13,30,145,30,120,05,102,38,15,14,183,39*4C
\c:1494514735567*64\$GPZDA,235215.00,12,07,2017,00,00*64
\c:1494514735568*6B\$GPGGA,235215,4157.8388,N,08736.4815,W,1,08,1.28,176.09,M,-34.239,M,,*74
\c:1494514735568*6B\$GPRMC,235215,A,4157.8388,N,08736.4815,W,1.5865,122.640,120717,,*3D
\c:1494514735568*6B\$GPGSA,A,3,00,00,00,00,00,00,00,00,,,,,2.0,1.3,1.6*35
\c:1494514736523*67\$GPGSV,3,1,12,05,74,047,45,02,49,083,46,29,62,300,44,20,53,242,39*7C
\c:1494514736523*67\$GPGSV,3,2,12,25,21,235,-0,12,08,202,33,21,10,287,-0,138,38,209,-0*58
\c:1494514736523*67\$GPGSV,3,3,12,06,03,095,46,13,30,145,30,120,05,102,39,15,14,183,39*4D
\c:1494514736560*60\$GPZDA,235216.00,12,07,2017,00,00*67
\c:1494514736560*60\$GPGGA,235216,4157.8386,N,08736.4809,W,1,09,1.04,176.19,M,-34.239,M,,*7A
\c:1494514736561*61\$GPRMC,235216,A,4157.8386,N,08736.4809,W,1.6746,124.233,120717,,*36
\c:1494514736561*61\$GPGSA,A,3,00,00,00,00,00,00,00,00,00,,,,1.5,1.0,1.1*37
\c:1494514737524*61\$GPGSV,3,1,12,05,74,047,44,02,49,083,45,29,62,300,44,20,53,242,40*70
\c:1494514737524*61\$GPGSV,3,2,12,25,21,235,-0,12,08,202,-0,21,10,287,-0,138,38,209,-0*45
\c:1494514737525*60\$GPGSV,3,3,12,06,03,095,47,13,30,145,31,120,05,102,39,15,14,183,38*4C
\c:1494514737558*6A\$GPZDA,235217.00,12,07,2017,00,00*66
\c:1494514737559*6B\$GPGGA,235217,4157.8385,N,08736.4805,W,1,09,1.04,176.03,M,-34.239,M,,*7F
\c:1494514737559*6B\$GPRMC,235217,A,4157.8385,N,08736.4805,W,1.3439,115.279,120717,,*3A
\c:1494514737559*6B\$GPGSA,A,3,00,00,00,00,00,00,00,00,00,,,,1.5,1.0,1.1*37
\c:1494514738524*6E\$GPGSV,3,1,12,05,74,047,44,02,49,083,44,29,62,300,44,20,53,242,40*71
\c:1494514738525*6F\$GPGSV,3,2,12,25,21,235,-0,12,08,202,-0,21,10,287,-0,138,38,209,-0*45
\c:1494514738525*6F\$GPGSV,3,3,12,06,03,095,47,13,30,145,31,120,05,102,41,15,14,183,38*43
\c:1494514738559*64\$GPZDA,235218.00,12,07,2017,00,00*69
\c:1494514738560*6E\$GPGGA,235218,4157.8384,N,08736.4800,W,1,09,1.04,175.68,M,-34.239,M,,*7A
\c:1494514738560*6E\$GPRMC,235218,A,4157.8384,N,08736.4800,W,1.6492,123.732,120717,,*3A
\c:1494514738560*6E\$GPGSA,A,3,00,00,00,00,00,00,00,00,00,,,,1.5,1.0,1.1*37
\c:1494514739524*6F\$GPGSV,3,1,12,05,74,047,44,02,49,083,44,29,62,300,44,20,53,242,39*7F
\c:1494514739525*6E\$GPGSV,3,2,12,25,21,235,-0,12,08,202,-0,21,10,287,-0,138,38,209,-0*45
\c:1494514739525*6E\$GPGSV,3,3,12,06,03,095,47,13,30,145,31,120,05,102,41,15,14,183,37*4C
\c:1494514739561*6E\$GPZDA,235219.00,12,07,2017,00,00*68
\c:1494514739561*6E\$GPGGA,235219,4157.8383,N,08736.4796,W,1,08,1.28,175.31,M,-34.239,M,,*7F
\c:1494514739561*6E\$GPRMC,235219,A,4157.8383,N,08736.4796,W,1.6492,123.732,120717,,*3C
\c:1494514739561*6E\$GPGSA,A,3,00,00,00,00,00,00,00,00,,,,,2.0,1.3,1.6*35
\c:1494514740524*61\$GPGSV,3,1,12,05,74,047,44,02,49,083,44,29,62,300,44,20,53,242,38*7E
\c:1494514740524*61\$GPGSV,3,2,12,25,21,235,-0,12,08,202,-0,21,10,287,-0,138,38,209,-0*45
\c:1494514740524*61\$GPGSV,3,3,12,06,03,095,47,13,30,145,-0,120,05,102,41,15,14,183,37*53
\c:1494514740560*61\$GPZDA,235220.00,12,07,2017,00,00*62
\c:1494514740560*61\$GPGGA,235220,4157.8381,N,08736.4791,W,1,08,1.28,175.24,M,-34.239,M,,*74
\c:1494514740560*61\$GPRMC,235220,A,4157.8381,N,08736.4791,W,1.6492,123.732,120717,,*33
\c:1494514740560*61\$GPGSA,A,3,00,00,00,00,00,00,00,00,,,,,2.0,1.3,1.6*35
\c:1494514741525*61\$GPGSV,3,1,12,05,74,047,44,02,49,083,44,29,62,300,44,20,53,242,37*71
\c:1494514741525*61\$GPGSV,3,2,12,25,21,235,-0,12,08,202,-0,21,10,287,-0,138,38,209,-0*45
\c:1494514741525*61\$GPGSV,3,3,12,06,03,095,47,13,30,145,-0,120,05,102,42,15,14,183,36*51
\c:1494514741547*65\$GPZDA,235221.00,12,07,2017,00,00*63
\c:1494514741547*65\$GPGGA,235221,4157.8378,N,08736.4786,W,1,08,1.28,175.25,M,-34.239,M,,*74
\c:1494514741547*65\$GPRMC,235221,A,4157.8378,N,08736.4786,W,1.6492,123.732,120717,,*32
\c:1494514741547*65\$GPGSA,A,3,00,00,00,00,00,00,00,00,,,,,2.0,1.3,1.6*35
\c:1494514742525*62\$GPGSV,3,1,12,05,74,047,44,02,49,084,44,29,62,300,43,20,53,242,37*71
\c:1494514742525*62\$GPGSV,3,2,12,25,21,235,-0,12,08,202,36,21,10,287,-0,138,38,209,-0*5D
\c:1494514742525*62\$GPGSV,3,3,12,06,03,095,47,13,30,145,-0,120,05,102,43,15,14,183,35*53
\c:1494514742562*61\$GPZDA,235222.00,12,07,2017,00,00*60
\c:1494514742562*61\$GPGGA,235222,4157.8375,N,08736.4781,W,1,08,1.28,175.15,M,-34.239,M,,*7E
\c:1494514742562*61\$GPRMC,235222,A,4157.8375,N,08736.4781,W,1.6492,123.732,120717,,*3B
\c:1494514742562*61\$GPGSA,A,3,00,00,00,00,00,00,00,00,,,,,2.0,1.3,1.6*35
\c:1494514743524*62\$GPGSV,3,1,12,05,74,047,44,02,49,084,44,29,62,300,41,20,53,242,-0*6A
