\c:1494204250998*68\$GPGSV,3,1,12,02,49,247,47,131,33,220,34,06,81,018,38,122,00,000,-0*60
\c:1494204250998*68\$GPGSV,3,2,12,19,60,068,41,28,07,149,-0,25,06,322,-0,17,42,086,44*73
\c:1494204250998*68\$GPGSV,3,3,12,03,13,038,-0,12,46,308,43,23,02,072,-0,24,18,261,36*74
\c:1494204251019*69\$GPZDA,004939.00,08,05,2017,00,00*68
\c:1494204251019*69\$GPGGA,004939,4206.5905,N,08750.5403,W,1,06,1.17,234.77,M,-34.268,M,,*74
\c:1494204251019*69\$GPRMC,004939,A,4206.5905,N,08750.5403,W,0.0226,171.161,080517,,*35
\c:1494204251019*69\$GPGSA,A,3,00,00,00,00,00,00,,,,,,,1.6,1.2,1.1*36
\c:1494204251997*66\$GPGSV,3,1,12,02,49,247,47,131,33,220,33,06,81,018,39,122,00,000,-0*66
\c:1494204251997*66\$GPGSV,3,2,12,19,60,068,41,28,07,149,-0,25,06,322,-0,17,42,086,44*73
\c:1494204251997*66\$GPGSV,3,3,12,03,13,038,-0,12,46,308,43,23,02,072,-0,24,18,261,36*74
\c:1494204252016*65\$GPZDA,004940.00,08,05,2017,00,00*66
\c:1494204252016*65\$GPGGA,004940,4206.5907,N,08750.5404,W,1,06,1.17,234.93,M,-34.268,M,,*75
\c:1494204252017*64\$GPRMC,004940,A,4206.5907,N,08750.5404,W,0.0142,64.073,080517,,*08
\c:1494204252017*64\$GPGSA,A,3,00,00,00,00,00,00,,,,,,,1.6,1.2,1.1*36
\c:14942042521000*53\$GPGSV,3,1,12,02,49,247,47,131,33,220,33,06,81,018,39,122,00,000,-0*66
\c:14942042521000*53\$GPGSV,3,2,12,19,60,068,41,28,07,149,-0,25,06,322,-0,17,42,086,44*73
\c:1494204253000*63\$GPGSV,3,3,12,03,13,038,-0,12,46,308,43,23,02,072,-0,24,18,261,37*75
\c:1494204253021*60\$GPZDA,004941.00,08,05,2017,00,00*67
\c:1494204253021*60\$GPGGA,004941,4206.5909,N,08750.5405,W,1,06,1.17,235.03,M,-34.268,M,,*73
\c:1494204253021*60\$GPRMC,004941,A,4206.5909,N,08750.5405,W,0.0155,26.450,080517,,*03
\c:1494204253021*60\$GPGSA,A,3,00,00,00,00,00,00,,,,,,,1.6,1.2,1.1*36
\c:1494204253997*64\$GPGSV,3,1,12,02,49,247,47,131,33,220,33,06,81,018,39,122,00,000,-0*66
\c:1494204253997*64\$GPGSV,3,2,12,19,60,068,41,28,07,149,-0,25,06,322,-0,17,42,086,44*73
\c:1494204253997*64\$GPGSV,3,3,12,03,13,038,-0,12,46,308,43,23,02,072,-0,24,18,261,37*75
\c:1494204254017*62\$GPZDA,004942.00,08,05,2017,00,00*64
\c:1494204254017*62\$GPGGA,004942,4206.5911,N,08750.5406,W,1,06,1.17,235.09,M,-34.268,M,,*70
\c:1494204254017*62\$GPRMC,004942,A,4206.5911,N,08750.5406,W,0.0087,348.867,080517,,*37
\c:1494204254017*62\$GPGSA,A,3,00,00,00,00,00,00,,,,,,,1.6,1.2,1.1*36
\c:1494204254995*61\$GPGSV,3,1,12,02,49,247,47,131,33,220,33,06,81,018,39,122,00,000,-0*66
\c:1494204254995*61\$GPGSV,3,2,12,19,60,068,41,28,07,149,-0,25,06,322,-0,17,42,086,44*73
\c:1494204254995*61\$GPGSV,3,3,12,03,13,038,-0,12,46,308,43,23,02,072,-0,24,18,261,36*74
\c:1494204255022*65\$GPZDA,004943.00,08,05,2017,00,00*65
\c:1494204255022*65\$GPGGA,004943,4206.5913,N,08750.5406,W,1,06,1.17,235.78,M,-34.268,M,,*75
\c:1494204255022*65\$GPRMC,004943,A,4206.5913,N,08750.5406,W,0.0407,154.177,080517,,*3F
\c:1494204255022*65\$GPGSA,A,3,00,00,00,00,00,00,,,,,,,1.6,1.2,1.1*36
\c:14942042551000*54\$GPGSV,3,1,12,02,49,247,46,131,33,220,32,06,81,018,39,122,00,000,-0*66
\c:1494204256000*66\$GPGSV,3,2,12,19,60,068,41,28,07,149,-0,25,06,322,-0,17,42,086,44*73
\c:1494204256000*66\$GPGSV,3,3,12,03,13,038,-0,12,46,308,43,23,02,072,-0,24,18,261,36*74
\c:1494204256035*60\$GPZDA,004944.00,08,05,2017,00,00*62
\c:1494204256035*60\$GPGGA,004944,4206.5914,N,08750.5407,W,1,06,1.17,235.70,M,-34.268,M,,*7C
\c:1494204256036*63\$GPRMC,004944,A,4206.5914,N,08750.5407,W,0.0206,176.225,080517,,*3D
\c:1494204256036*63\$GPGSA,A,3,00,00,00,00,00,00,,,,,,,1.6,1.2,1.1*36
\c:1494204256992*64\$GPGSV,3,1,12,02,49,247,46,131,33,220,32,06,81,018,39,122,00,000,-0*66
\c:1494204256992*64\$GPGSV,3,2,12,19,60,068,41,28,07,149,-0,25,06,322,-0,17,42,086,44*73
\c:1494204256992*64\$GPGSV,3,3,12,03,13,038,-0,12,46,308,43,23,02,072,-0,24,18,261,36*74
\c:1494204257016*60\$GPZDA,004945.00,08,05,2017,00,00*63
\c:1494204257017*61\$GPGGA,004945,4206.5916,N,08750.5407,W,1,06,1.17,235.47,M,-34.268,M,,*7B
\c:1494204257017*61\$GPRMC,004945,A,4206.5916,N,08750.5407,W,0.0420,8.306,080517,,*34
\c:1494204257017*61\$GPGSA,A,3,00,00,00,00,00,00,,,,,,,1.6,1.2,1.1*36
\c:1494204257997*60\$GPGSV,3,1,12,02,49,247,46,131,33,220,32,06,81,018,40,122,00,000,-0*68
\c:1494204257997*60\$GPGSV,3,2,12,19,60,068,41,28,07,149,-0,25,06,322,-0,17,42,086,44*73
\c:1494204257998*6F\$GPGSV,3,3,12,03,13,038,-0,12,46,308,42,23,02,072,-0,24,18,261,36*75
\c:1494204258023*69\$GPZDA,004946.00,08,05,2017,00,00*60
\c:1494204258024*6E\$GPGGA,004946,4206.5918,N,08750.5407,W,1,06,1.17,235.71,M,-34.268,M,,*73
\c:1494204258024*6E\$GPRMC,004946,A,4206.5918,N,08750.5407,W,0.0226,148.353,080517,,*3C
\c:1494204258024*6E\$GPGSA,A,3,00,00,00,00,00,00,,,,,,,1.6,1.2,1.1*36
\c:1494204258995*6D\$GPGSV,3,1,12,02,49,247,46,131,33,220,32,06,81,018,40,122,00,000,-0*68
\c:1494204258995*6D\$GPGSV,3,2,12,19,60,068,41,28,07,149,-0,25,06,322,-0,17,42,086,44*73
\c:1494204258996*6E\$GPGSV,3,3,12,03,13,038,-0,12,46,308,42,23,02,072,-0,24,18,261,35*76
\c:1494204259015*6D\$GPZDA,004947.00,08,05,2017,00,00*61
\c:1494204259015*6D\$GPGGA,004947,4206.5920,N,08750.5407,W,1,06,1.17,235.79,M,-34.268,M,,*71
\c:1494204259015*6D\$GPRMC,004947,A,4206.5920,N,08750.5407,W,0.0124,85.093,080517,,*08
\c:1494204259015*6D\$GPGSA,A,3,00,00,00,00,00,00,,,,,,,1.6,1.2,1.1*36
\c:1494204259996*6F\$GPGSV,3,1,12,02,49,247,46,131,33,220,32,06,81,018,40,122,00,000,-0*68
\c:1494204259996*6F\$GPGSV,3,2,12,19,60,068,41,28,07,149,-0,25,06,322,-0,17,42,086,44*73
\c:1494204259996*6F\$GPGSV,3,3,12,03,13,038,-0,12,46,308,42,23,02,072,-0,24,18,261,35*76
\c:1494204260016*64\$GPZDA,004948.00,08,05,2017,00,00*6E
\c:1494204260016*64\$GPGGA,004948,4206.5922,N,08750.5407,W,1,06,1.17,235.55,M,-34.268,M,,*72
\c:1494204260016*64\$GPRMC,004948,A,4206.5922,N,08750.5407,W,0.0307,38.221,080517,,*0B
\c:1494204260017*65\$GPGSA,A,3,00,00,00,00,00,00,,,,,,,1.6,1.2,1.1*36
\c:1494204260997*64\$GPGSV,3,1,12,02,49,247,46,131,33,220,32,06,81,018,40,122,00,000,-0*68
\c:1494204260997*64\$GPGSV,3,2,12,19,60,068,41,28,07,149,-0,25,06,322,-0,17,42,086,44*73
\c:1494204260997*64\$GPGSV,3,3,12,03,13,038,-0,12,46,308,42,23,02,072,-0,24,18,261,35*76
\c:1494204261021*61\$GPZDA,004949.00,08,05,2017,00,00*6F
\c:1494204261022*62\$GPGGA,004949,4206.5923,N,08750.5408,W,1,06,1.17,234.59,M,-34.268,M,,*70
\c:1494204261022*62\$GPRMC,004949,A,4206.5923,N,08750.5408,W,0.0110,25.550,080517,,*0D
\c:1494204261022*62\$GPGSA,A,3,00,00,00,00,00,00,,,,,,,1.6,1.2,1.1*36
\c:1494204261994*66\$GPGSV,3,1,12,02,49,247,46,131,33,220,31,06,81,018,40,122,00,000,-0*6B
\c:1494204261994*66\$GPGSV,3,2,12,19,60,068,41,28,07,149,-0,25,06,322,-0,17,42,086,44*73
\c:1494204261995*67\$GPGSV,3,3,12,03,13,038,-0,12,46,308,42,23,02,072,-0,24,18,261,35*76
\c:1494204262016*66\$GPZDA,004950.00,08,05,2017,00,00*67
\c:1494204262016*66\$GPGGA,004950,4206.5925,N,08750.5408,W,1,06,1.17,233.57,M,-34.268,M,,*77
\c:1494204262017*67\$GPRMC,004950,A,4206.5925,N,08750.5408,W,0.0234,168.869,080517,,*39
\c:1494204262017*67\$GPGSA,A,3,00,00,00,00,00,00,,,,,,,1.6,1.2,1.1*36
\c:1494204262992*63\$GPGSV,3,1,12,02,49,247,46,131,33,220,31,06,81,018,40,122,00,000,-0*6B
\c:1494204262993*62\$GPGSV,3,2,12,19,60,068,41,28,07,149,-0,25,06,322,-0,17,42,086,44*73
\c:1494204262993*62\$GPGSV,3,3,12,03,13,038,-0,12,46,308,42,23,02,072,-0,24,18,260,35*77
\c:1494204263015*64\$GPZDA,004951.00,08,05,2017,00,00*66
\c:1494204263016*67\$GPGGA,004951,4206.5927,N,08750.5409,W,1,06,1.17,232.58,M,-34.268,M,,*7B
\c:1494204263016*67\$GPRMC,004951,A,4206.5927,N,08750.5409,W,0.0338,2.552,080517,,*3E
\c:1494204263016*67\$GPGSA,A,3,00,00,00,00,00,00,,,,,,,1.6,1.2,1.1*36
\c:1494204263997*67\$GPGSV,3,1,12,02,49,247,46,131,33,220,31,06,81,018,40,122,00,000,-0*6B
\c:1494204263998*68\$GPGSV,3,2,12,19,60,068,41,28,07,149,-0,25,06,322,-0,17,42,086,44*73
\c:1494204263998*68\$GPGSV,3,3,12,03,13,038,-0,12,46,308,42,23,02,072,-0,24,18,260,35*77
\c:1494204264021*64\$GPZDA,004952.00,08,05,2017,00,00*65
\c:1494204264021*64\$GPGGA,004952,4206.5929,N,08750.5410,W,1,06,1.17,231.50,M,-34.268,M,,*75
\c:1494204264021*64\$GPRMC,004952,A,4206.5929,N,08750.5410,W,0.0096,66.558,080517,,*04
\c:1494204264021*64\$GPGSA,A,3,00,00,00,00,00,00,,,,,,,1.6,1.2,1.1*36
\c:1494204268784*60\$GPRMC,004954,A,4206.5933,N,08750.5411,W,0.0120,307.133,080517,,*39
\c:1494204268785*61\$GPGSA,A,3,00,00,00,00,00,00,,,,,,,4.9,3.0,3.9*36
\c:1494204268785*61\$GPGSV,3,1,12,02,49,247,45,131,33,220,31,06,81,018,41,133,43,196,-0*60
\c:1494204268785*61\$GPGSV,3,2,12,19,60,068,41,28,07,149,-0,25,06,322,-0,17,42,086,44*73
\c:1494204268785*61\$GPGSV,3,3,12,03,13,038,-0,12,46,308,41,23,02,072,-0,24,18,260,35*74
\c:1494204268785*61\$GPZDA,004955.00,08,05,2017,00,00*62
\c:1494204268785*61\$GPGGA,004955,4206.5935,N,08750.5412,W,1,06,2.97,228.68,M,-34.268,M,,*75
\c:1494204268785*61\$GPRMC,004955,A,4206.5935,N,08750.5412,W,0.0246,14.239,080517,,*06
\c:1494204268785*61\$GPGSA,A,3,00,00,00,00,00,00,,,,,,,4.9,3.0,3.9*36
\c:1494204268785*61\$GPGSV,3,1,12,02,49,247,45,131,33,220,31,06,81,018,41,133,43,196,-0*60
\c:1494204268785*61\$GPGSV,3,2,12,19,60,068,41,28,07,149,-0,25,06,322,-0,17,42,086,44*73
\c:1494204268786*62\$GPGSV,3,3,12,03,13,038,-0,12,46,308,41,23,02,072,-0,24,18,260,36*77
\c:1494204268786*62\$GPZDA,004956.00,08,05,2017,00,00*61
\c:1494204268786*62\$GPGGA,004956,4206.5937,N,08750.5413,W,1,06,2.97,227.86,M,-34.268,M,,*7A
\c:1494204268786*62\$GPRMC,004956,A,4206.5937,N,08750.5413,W,0.0165,34.131,080517,,*0D
\c:1494204268786*62\$GPGSA,A,3,00,00,00,00,00,00,,,,,,,4.9,3.0,3.9*36
\c:1494204268996*6D\$GPGSV,3,1,12,02,49,247,45,131,33,220,31,06,81,018,41,133,43,196,-0*60
\c:1494204268997*6C\$GPGSV,3,2,12,19,60,068,41,28,07,149,-0,25,06,322,-0,17,42,086,44*73
\c:1494204268997*6C\$GPGSV,3,3,12,03,13,038,-0,12,46,308,41,23,02,072,-0,24,18,260,35*74
\c:1494204269024*6C\$GPZDA,004957.00,08,05,2017,00,00*60
\c:1494204269024*6C\$GPGGA,004957,4206.5938,N,08750.5414,W,1,06,2.97,227.19,M,-34.268,M,,*75
\c:1494204269024*6C\$GPRMC,004957,A,4206.5938,N,08750.5414,W,0.0026,238.560,080517,,*3C
\c:1494204269025*6D\$GPGSA,A,3,00,00,00,00,00,00,,,,,,,4.9,3.0,3.9*36
\c:1494204269996*6C\$GPGSV,3,1,12,02,49,247,45,131,33,220,31,06,81,018,41,133,43,196,-0*60
\c:1494204269996*6C\$GPGSV,3,2,12,19,60,068,41,28,07,149,-0,25,06,322,-0,17,42,086,44*73
\c:1494204269996*6C\$GPGSV,3,3,12,03,13,038,-0,12,46,308,41,23,02,072,-0,24,18,260,36*77
\c:1494204270019*6A\$GPZDA,004958.00,08,05,2017,00,00*6F
\c:1494204270019*6A\$GPGGA,004958,4206.5940,N,08750.5415,W,1,06,2.97,226.55,M,-34.268,M,,*7D
\c:1494204270020*60\$GPRMC,004958,A,4206.5940,N,08750.5415,W,0.0025,4.021,080517,,*33
\c:1494204270020*60\$GPGSA,A,3,00,00,00,00,00,00,,,,,,,4.9,3.0,3.9*36
\c:1494204270996*64\$GPGSV,3,1,12,02,49,247,45,131,33,220,31,06,81,018,41,133,43,196,-0*60
\c:1494204270997*65\$GPGSV,3,2,12,19,60,068,41,28,07,149,-0,25,06,322,-0,17,42,086,44*73
\c:1494204270997*65\$GPGSV,3,3,12,03,13,038,-0,12,46,308,41,23,02,072,-0,24,18,260,36*77
\c:1494204271017*65\$GPZDA,004959.00,08,05,2017,00,00*6E
\c:1494204271017*65\$GPGGA,004959,4206.5941,N,08750.5416,W,1,06,2.97,225.95,M,-34.268,M,,*71
\c:1494204271017*65\$GPRMC,004959,A,4206.5941,N,08750.5416,W,0.0213,331.314,080517,,*37
\c:1494204271017*65\$GPGSA,A,3,00,00,00,00,00,00,,,,,,,4.9,3.0,3.9*36
\c:1494204271993*60\$GPGSV,3,1,12,02,49,247,45,131,33,220,31,06,81,018,41,133,43,196,-0*60
\c:1494204271993*60\$GPGSV,3,2,12,19,60,068,41,28,07,149,-0,25,06,322,-0,17,42,086,44*73
\c:1494204271993*60\$GPGSV,3,3,12,03,13,038,-0,12,46,308,41,23,02,072,-0,24,18,260,36*77
\c:1494204272021*63\$GPZDA,005000.00,08,05,2017,00,00*6A
\c:1494204272021*63\$GPGGA,005000,4206.5942,N,08750.5416,W,1,06,2.97,225.34,M,-34.268,M,,*7D
\c:1494204272021*63\$GPRMC,005000,A,4206.5942,N,08750.5416,W,0.0152,176.589,080517,,*35
\c:1494204272021*63\$GPGSA,A,3,00,00,00,00,00,00,,,,,,,4.9,3.0,3.9*36
\c:1494204272994*64\$GPGSV,3,1,12,02,49,247,45,131,33,220,31,06,81,018,41,133,43,196,-0*60
\c:1494204272995*65\$GPGSV,3,2,12,19,60,068,41,28,07,149,-0,25,06,322,-0,17,42,086,44*73
\c:1494204272995*65\$GPGSV,3,3,12,03,13,038,-0,12,46,308,41,23,02,072,-0,24,18,260,36*77
\c:1494204273015*65\$GPZDA,005001.00,08,05,2017,00,00*6B
\c:1494204273015*65\$GPGGA,005001,4206.5944,N,08750.5417,W,1,06,2.97,224.68,M,-34.268,M,,*73
\c:1494204273015*65\$GPRMC,005001,A,4206.5944,N,08750.5417,W,0.0680,15.254,080517,,*08
\c:1494204273015*65\$GPGSA,A,3,00,00,00,00,00,00,,,,,,,4.9,3.0,3.9*36
\c:1494204273997*66\$GPGSV,3,1,12,02,49,247,45,131,33,220,31,06,81,018,41,133,43,196,-0*60
\c:1494204274002*64\$GPGSV,3,2,12,19,60,068,42,28,07,149,-0,25,06,322,-0,17,42,086,44*70
\c:1494204274003*65\$GPGSV,3,3,12,03,13,038,-0,12,46,308,41,23,02,072,-0,24,18,260,36*77
\c:1494204274017*60\$GPZDA,005002.00,08,05,2017,00,00*68
\c:1494204274017*60\$GPGGA,005002,4206.5945,N,08750.5417,W,1,06,2.97,224.15,M,-34.268,M,,*7B
\c:1494204274017*60\$GPRMC,005002,A,4206.5945,N,08750.5417,W,0.0216,194.725,080517,,*3A
\c:1494204274017*60\$GPGSA,A,3,00,00,00,00,00,00,,,,,,,4.9,3.0,3.9*36
\c:1494204274996*60\$GPGSV,3,1,12,02,49,247,44,131,33,220,32,06,81,018,42,133,43,196,-0*61
\c:1494204274996*60\$GPGSV,3,2,12,19,60,068,42,28,07,149,-0,25,06,322,-0,17,42,086,43*77
\c:1494204274996*60\$GPGSV,3,3,12,03,13,038,-0,12,46,308,41,23,02,072,-0,24,18,260,36*77
\c:1494204275021*64\$GPZDA,005003.00,08,05,2017,00,00*69
\c:1494204275021*64\$GPGGA,005003,4206.5946,N,08750.5418,W,1,06,2.97,223.73,M,-34.268,M,,*71
\c:1494204275021*64\$GPRMC,005003,A,4206.5946,N,08750.5418,W,0.0055,279.040,080517,,*36
\c:1494204275021*64\$GPGSA,A,3,00,00,00,00,00,00,,,,,,,4.9,3.0,3.9*36
\c:1494204275992*65\$GPGSV,3,1,12,02,49,247,44,131,33,220,34,06,81,018,42,133,43,196,-0*67
\c:1494204275992*65\$GPGSV,3,2,12,19,60,068,42,28,07,149,-0,25,06,322,-0,17,42,086,43*77
\c:1494204275992*65\$GPGSV,3,3,12,03,13,038,-0,12,46,308,41,23,02,072,-0,24,18,260,36*77
\c:1494204276015*60\$GPZDA,005004.00,08,05,2017,00,00*6E
\c:1494204276015*60\$GPGGA,005004,4206.5947,N,08750.5419,W,1,06,2.97,223.42,M,-34.268,M,,*74
\c:1494204276015*60\$GPRMC,005004,A,4206.5947,N,08750.5419,W,0.0202,43.327,080517,,*08
\c:1494204276015*60\$GPGSA,A,3,00,00,00,00,00,00,,,,,,,4.9,3.0,3.9*36
\c:1494204276996*62\$GPGSV,3,1,12,02,49,247,44,131,33,220,34,06,81,018,42,133,43,196,-0*67
\c:1494204276996*62\$GPGSV,3,2,12,19,60,068,42,28,07,149,-0,25,06,322,-0,17,42,086,43*77
\c:1494204276996*62\$GPGSV,3,3,12,03,13,038,-0,12,46,308,41,23,02,072,-0,24,18,260,36*77
\c:1494204277017*63\$GPZDA,005005.00,08,05,2017,00,00*6F
\c:1494204277017*63\$GPGGA,005005,4206.5948,N,08750.5420,W,1,06,2.97,223.21,M,-34.268,M,,*75
\c:1494204277017*63\$GPRMC,005005,A,4206.5948,N,08750.5420,W,0.0077,233.943,080517,,*31
\c:1494204277017*63\$GPGSA,A,3,00,00,00,00,00,00,,,,,,,4.9,3.0,3.9*36
\c:1494204277995*60\$GPGSV,3,1,12,02,49,247,44,131,33,220,32,06,81,018,42,133,43,196,-0*61
\c:1494204277995*60\$GPGSV,3,2,12,19,60,068,42,28,07,149,-0,25,06,322,-0,17,42,086,43*77
\c:1494204277995*60\$GPGSV,3,3,12,03,13,038,-0,12,46,308,41,23,02,072,-0,24,18,260,36*77
\c:1494204278018*63\$GPZDA,005006.00,08,05,2017,00,00*6C
\c:1494204278018*63\$GPGGA,005006,4206.5948,N,08750.5420,W,1,06,2.97,223.13,M,-34.268,M,,*77
\c:1494204278018*63\$GPRMC,005006,A,4206.5948,N,08750.5420,W,0.0435,12.163,080517,,*0B
\c:1494204278019*62\$GPGSA,A,3,00,00,00,00,00,00,,,,,,,4.9,3.0,3.9*36
\c:1494204278996*6C\$GPGSV,3,1,12,02,49,247,44,131,33,220,32,06,81,018,42,133,43,196,-0*61
\c:1494204278996*6C\$GPGSV,3,2,12,19,60,068,42,28,07,149,-0,25,06,322,-0,17,42,086,43*77
\c:1494204278996*6C\$GPGSV,3,3,12,03,13,038,-0,12,46,308,41,23,02,072,-0,24,18,260,36*77
\c:1494204279017*6D\$GPZDA,005007.00,08,05,2017,00,00*6D
\c:1494204279017*6D\$GPGGA,005007,4206.5948,N,08750.5421,W,1,06,2.97,223.12,M,-34.268,M,,*76
\c:1494204279017*6D\$GPRMC,005007,A,4206.5948,N,08750.5421,W,0.0268,182.581,080517,,*35
\c:1494204279018*62\$GPGSA,A,3,00,00,00,00,00,00,,,,,,,4.9,3.0,3.9*36
\c:1494204279996*6D\$GPGSV,3,1,12,02,49,247,44,131,33,220,33,06,81,018,42,133,43,196,-0*60
\c:1494204279996*6D\$GPGSV,3,2,12,19,60,068,42,28,07,149,-0,25,06,322,-0,17,42,086,43*77
\c:1494204279996*6D\$GPGSV,3,3,12,03,13,038,-0,12,46,308,41,23,02,072,-0,24,18,260,36*77
\c:1494204280015*69\$GPZDA,005008.00,08,05,2017,00,00*62
\c:1494204280015*69\$GPGGA,005008,4206.5948,N,08750.5422,W,1,06,2.97,223.19,M,-34.268,M,,*71
\c:1494204280016*6A\$GPRMC,005008,A,4206.5948,N,08750.5422,W,0.0305,14.466,080517,,*05
\c:1494204280016*6A\$GPGSA,A,3,00,00,00,00,00,00,,,,,,,4.9,3.0,3.9*36
\c:1494204280994*69\$GPGSV,3,1,12,02,49,247,43,131,33,220,33,06,81,018,42,133,43,196,-0*67
\c:1494204280995*68\$GPGSV,3,2,12,19,60,068,42,28,07,149,-0,25,06,322,-0,17,42,086,43*77
\c:1494204280995*68\$GPGSV,3,3,12,03,13,038,-0,12,46,308,41,23,02,072,-0,24,18,260,36*77
\c:1494204281013*6E\$GPZDA,005009.00,08,05,2017,00,00*63
\c:1494204281013*6E\$GPGGA,005009,4206.5947,N,08750.5423,W,1,06,2.97,223.28,M,-34.268,M,,*7C
\c:1494204281014*69\$GPRMC,005009,A,4206.5947,N,08750.5423,W,0.0029,157.210,080517,,*36
\c:1494204281014*69\$GPGSA,A,3,00,00,00,00,00,00,,,,,,,4.9,3.0,3.9*36
\c:1494204282000*6F\$GPGSV,3,1,12,02,49,247,43,131,33,220,33,06,81,018,42,133,43,196,-0*67
\c:1494204282001*6E\$GPGSV,3,2,12,19,60,068,42,28,07,149,-0,25,06,322,-0,17,42,086,43*77
\c:1494204282001*6E\$GPGSV,3,3,12,03,13,038,-0,12,46,308,41,23,02,072,-0,24,18,260,37*76
\c:1494204282019*67\$GPZDA,005010.00,08,05,2017,00,00*6B
\c:1494204282020*6D\$GPGGA,005010,4206.5946,N,08750.5424,W,1,06,2.97,223.38,M,-34.268,M,,*73
\c:1494204282020*6D\$GPRMC,005010,A,4206.5946,N,08750.5424,W,0.0159,133.881,080517,,*3E
\c:1494204282020*6D\$GPGSA,A,3,00,00,00,00,00,00,,,,,,,4.9,3.0,3.9*36
\c:1494204282997*68\$GPGSV,3,1,12,02,49,247,43,131,33,220,35,06,81,018,42,133,43,196,-0*61
\c:1494204282998*67\$GPGSV,3,2,12,19,60,068,42,28,07,149,-0,25,06,322,-0,17,42,086,43*77
\c:1494204282998*67\$GPGSV,3,3,12,03,13,038,-0,12,46,308,41,23,02,072,-0,24,18,260,37*76
\c:1494204283020*6C\$GPZDA,005011.00,08,05,2017,00,00*6A
\c:1494204283020*6C\$GPGGA,005011,4206.5945,N,08750.5425,W,1,06,2.97,223.39,M,-34.268,M,,*71
\c:1494204283020*6C\$GPRMC,005011,A,4206.5945,N,08750.5425,W,0.0453,12.311,080517,,*02
\c:1494204283020*6C\$GPGSA,A,3,00,00,00,00,00,00,,,,,,,4.9,3.0,3.9*36
\c:1494204283997*69\$GPGSV,3,1,12,02,49,247,43,131,33,220,35,06,81,018,43,133,43,196,-0*60
\c:1494204283997*69\$GPGSV,3,2,12,19,60,068,42,28,07,149,-0,25,06,322,-0,17,42,086,43*77
\c:1494204283997*69\$GPGSV,3,3,12,03,13,038,-0,12,46,308,42,23,02,072,-0,24,18,260,37*75
\c:1494204284015*6D\$GPZDA,005012.00,08,05,2017,00,00*69
\c:1494204284015*6D\$GPGGA,005012,4206.5944,N,08750.5426,W,1,06,2.97,223.41,M,-34.268,M,,*7F
\c:1494204284015*6D\$GPRMC,005012,A,4206.5944,N,08750.5426,W,0.0490,339.229,080517,,*3C
\c:1494204284015*6D\$GPGSA,A,3,00,00,00,00,00,00,,,,,,,4.9,3.0,3.9*36
\c:14942042841000*58\$GPGSV,3,1,12,02,49,247,42,131,33,220,34,06,80,019,43,133,43,196,-0*60
\c:14942042841000*58\$GPGSV,3,2,12,19,60,068,42,28,07,149,-0,25,06,322,-0,17,42,086,42*76
\c:1494204285000*68\$GPGSV,3,3,12,03,13,038,-0,12,46,308,42,23,02,072,-0,24,18,260,36*74
\c:1494204285021*6B\$GPZDA,005013.00,08,05,2017,00,00*68
\c:1494204285021*6B\$GPGGA,005013,4206.5942,N,08750.5426,W,1,06,2.97,223.31,M,-34.268,M,,*7F
\c:1494204285021*6B\$GPRMC,005013,A,4206.5942,N,08750.5426,W,0.0197,119.359,080517,,*3F
\c:1494204285021*6B\$GPGSA,A,3,00,00,00,00,00,00,,,,,,,5.0,3.0,4.0*30
\c:1494204285998*60\$GPGSV,3,1,12,02,49,247,42,131,33,220,34,06,80,019,43,133,43,196,-0*60
\c:1494204285999*61\$GPGSV,3,2,12,19,60,068,42,28,07,149,-0,25,06,322,-0,17,42,086,42*76
\c:1494204285999*61\$GPGSV,3,3,12,03,13,038,-0,12,46,308,42,23,02,072,-0,24,18,260,36*74
\c:1494204286019*63\$GPZDA,005014.00,08,05,2017,00,00*6F
\c:1494204286019*63\$GPGGA,005014,4206.5940,N,08750.5426,W,1,06,2.97,223.20,M,-34.268,M,,*7A
\c:1494204286019*63\$GPRMC,005014,A,4206.5940,N,08750.5426,W,0.0230,121.314,080517,,*36
\c:1494204286020*69\$GPGSA,A,3,00,00,00,00,00,00,,,,,,,5.0,3.0,4.0*30
\c:1494204286997*6C\$GPGSV,3,1,12,02,49,247,42,131,33,220,34,06,80,019,43,133,43,196,-0*60
\c:1494204286997*6C\$GPGSV,3,2,12,19,60,068,42,28,07,149,-0,25,06,322,-0,17,42,086,42*76
\c:1494204286997*6C\$GPGSV,3,3,12,03,13,038,-0,12,46,308,42,23,02,072,-0,24,18,260,36*74
\c:1494204287037*6E\$GPZDA,005015.00,08,05,2017,00,00*6E
\c:1494204287037*6E\$GPGGA,005015,4206.5938,N,08750.5427,W,1,06,2.97,222.96,M,-34.268,M,,*79
\c:1494204287037*6E\$GPRMC,005015,A,4206.5938,N,08750.5427,W,0.0272,354.978,080517,,*3F
\c:1494204287037*6E\$GPGSA,A,3,00,00,00,00,00,00,,,,,,,5.0,3.0,4.0*30
\c:1494204287997*6D\$GPGSV,3,1,12,02,49,247,42,131,33,220,35,06,80,019,43,133,43,196,-0*61
\c:1494204287997*6D\$GPGSV,3,2,12,19,60,068,42,28,07,149,-0,25,06,322,-0,17,42,086,42*76
\c:1494204287997*6D\$GPGSV,3,3,12,03,13,038,-0,12,46,308,42,23,02,072,-0,24,18,260,36*74
\c:1494204288021*66\$GPZDA,005016.00,08,05,2017,00,00*6D
\c:1494204288021*66\$GPGGA,005016,4206.5936,N,08750.5426,W,1,06,2.97,222.58,M,-34.268,M,,*77
\c:1494204288022*65\$GPRMC,005016,A,4206.5936,N,08750.5426,W,0.0249,11.840,080517,,*03
\c:1494204288022*65\$GPGSA,A,3,00,00,00,00,00,00,,,,,,,5.0,3.0,4.0*30
\c:1494204288996*63\$GPGSV,3,1,12,02,49,247,42,131,33,220,34,06,80,019,43,133,43,196,-0*60
\c:1494204288996*63\$GPGSV,3,2,12,19,60,068,42,28,07,149,-0,25,06,322,-0,17,42,086,42*76
\c:1494204288996*63\$GPGSV,3,3,12,03,13,038,-0,12,46,308,43,23,02,072,-0,24,18,260,36*75
\c:1494204289015*60\$GPZDA,005017.00,08,05,2017,00,00*6C
\c:1494204289015*60\$GPGGA,005017,4206.5933,N,08750.5426,W,1,06,2.97,222.16,M,-34.268,M,,*79
\c:1494204289015*60\$GPRMC,005017,A,4206.5933,N,08750.5426,W,0.0108,81.412,080517,,*03
\c:1494204289016*63\$GPGSA,A,3,00,00,00,00,00,00,,,,,,,5.0,3.0,4.0*30
\c:1494204289995*61\$GPGSV,3,1,12,02,49,247,42,131,33,220,34,06,80,019,43,133,43,196,-0*60
\c:1494204289995*61\$GPGSV,3,2,12,19,60,068,42,28,07,149,-0,25,06,322,-0,17,42,086,42*76
\c:1494204289995*61\$GPGSV,3,3,12,03,13,038,-0,12,46,308,43,23,02,072,-0,24,18,260,35*76
\c:1494204290022*6C\$GPZDA,005018.00,08,05,2017,00,00*63
\c:1494204290022*6C\$GPGGA,005018,4206.5931,N,08750.5426,W,1,06,2.97,221.53,M,-34.268,M,,*76
\c:1494204290023*6D\$GPRMC,005018,A,4206.5931,N,08750.5426,W,0.0233,166.506,080517,,*39
\c:1494204290023*6D\$GPGSA,A,3,00,00,00,00,00,00,,,,,,,5.0,3.0,4.0*30
\c:1494204290999*65\$GPGSV,3,1,12,02,49,247,42,131,33,220,34,06,80,019,43,133,43,196,-0*60
\c:14942042901000*5D\$GPGSV,3,2,12,19,60,068,42,28,07,149,-0,25,06,322,-0,17,42,086,42*76
\c:14942042901000*5D\$GPGSV,3,3,12,03,13,038,-0,12,46,308,43,23,02,072,-0,24,18,260,35*76
\c:1494204291022*6D\$GPZDA,005019.00,08,05,2017,00,00*62
\c:1494204291023*6C\$GPGGA,005019,4206.5928,N,08750.5426,W,1,06,2.97,220.95,M,-34.268,M,,*74
\c:1494204291023*6C\$GPRMC,005019,A,4206.5928,N,08750.5426,W,0.0517,7.735,080517,,*35
\c:1494204291023*6C\$GPGSA,A,3,00,00,00,00,00,00,,,,,,,5.0,3.0,4.0*30
\c:1494204291994*69\$GPGSV,3,1,12,02,49,247,42,131,33,220,33,06,80,019,43,133,43,196,-0*67
\c:1494204291995*68\$GPGSV,3,2,12,19,60,068,42,28,07,149,-0,25,06,322,-0,17,42,086,42*76
\c:1494204291995*68\$GPGSV,3,3,12,03,13,038,-0,12,46,308,43,23,02,072,-0,24,18,260,35*76
\c:1494204292019*66\$GPZDA,005020.00,08,05,2017,00,00*68
\c:1494204292019*66\$GPGGA,005020,4206.5926,N,08750.5426,W,1,06,2.97,220.46,M,-34.268,M,,*7E
\c:1494204292019*66\$GPRMC,005020,A,4206.5926,N,08750.5426,W,0.0115,327.520,080517,,*30
\c:1494204292019*66\$GPGSA,A,3,00,00,00,00,00,00,,,,,,,5.0,3.0,4.0*30
\c:14942042921000*5F\$GPGSV,3,1,12,02,49,247,42,131,33,220,33,06,80,019,43,133,43,196,-0*67
\c:14942042921000*5F\$GPGSV,3,2,12,19,60,068,42,28,07,149,-0,25,06,322,-0,17,42,086,42*76
\c:14942042921000*5F\$GPGSV,3,3,12,03,13,038,-0,12,46,308,43,23,02,072,-0,24,18,260,35*76
\c:1494204293017*69\$GPZDA,005021.00,08,05,2017,00,00*69
\c:1494204293017*69\$GPGGA,005021,4206.5923,N,08750.5426,W,1,06,2.97,220.08,M,-34.268,M,,*70
\c:1494204293017*69\$GPRMC,005021,A,4206.5923,N,08750.5426,W,0.0154,47.937,080517,,*0E
\c:1494204293017*69\$GPGSA,A,3,00,00,00,00,00,00,,,,,,,5.0,3.0,4.0*30
\c:1494204293992*6D\$GPGSV,3,1,12,02,49,247,43,131,33,220,33,06,80,019,43,133,43,196,-0*66
\c:1494204293992*6D\$GPGSV,3,2,12,19,60,068,42,28,07,149,-0,25,06,322,-0,17,42,086,42*76
\c:1494204293992*6D\$GPGSV,3,3,12,03,13,038,-0,12,46,308,43,23,02,072,-0,24,18,260,35*76
\c:1494204294014*6D\$GPZDA,005022.00,08,05,2017,00,00*6A
\c:1494204294014*6D\$GPGGA,005022,4206.5921,N,08750.5425,W,1,06,2.97,219.78,M,-34.268,M,,*7F
\c:1494204294014*6D\$GPRMC,005022,A,4206.5921,N,08750.5425,W,0.0263,24.202,080517,,*03
\c:1494204294014*6D\$GPGSA,A,3,00,00,00,00,00,00,,,,,,,5.0,3.0,4.0*30
\c:1494204295023*68\$GPGSV,3,1,12,02,49,247,43,131,33,220,33,06,80,019,43,133,43,196,-0*66
\c:1494204295023*68\$GPGSV,3,2,12,19,60,068,42,28,07,149,-0,25,06,322,-0,17,42,086,42*76
\c:1494204295023*68\$GPGSV,3,3,12,03,13,038,-0,12,46,308,43,23,02,072,-0,24,18,260,35*76
\c:1494204295044*69\$GPZDA,005023.00,08,05,2017,00,00*6B
\c:1494204295044*69\$GPGGA,005023,4206.5919,N,08750.5425,W,1,06,2.97,219.66,M,-34.268,M,,*7A
\c:1494204295044*69\$GPRMC,005023,A,4206.5919,N,08750.5425,W,0.0173,29.400,080517,,*02
\c:1494204295044*69\$GPGSA,A,3,00,00,00,00,00,00,,,,,,,5.0,3.0,4.0*30
\c:1494204295994*6D\$GPGSV,3,1,12,02,49,247,43,131,33,220,32,06,80,019,43,133,43,196,-0*67
\c:1494204295994*6D\$GPGSV,3,2,12,19,60,068,42,28,07,149,-0,25,06,322,-0,17,42,086,42*76
\c:1494204295994*6D\$GPGSV,3,3,12,03,13,038,-0,12,46,308,44,23,02,072,-0,24,18,260,35*71
\c:1494204296019*62\$GPZDA,005024.00,08,05,2017,00,00*6C
\c:1494204296019*62\$GPGGA,005024,4206.5917,N,08750.5425,W,1,06,2.97,219.51,M,-34.268,M,,*77
\c:1494204296019*62\$GPRMC,005024,A,4206.5917,N,08750.5425,W,0.0093,158.821,080517,,*3C
\c:1494204296019*62\$GPGSA,A,3,00,00,00,00,00,00,,,,,,,5.0,3.0,4.0*30
\c:1494204296998*62\$GPGSV,3,1,12,02,49,247,43,131,33,220,32,06,80,019,43,133,43,196,-0*67
\c:1494204296998*62\$GPGSV,3,2,12,19,60,068,42,28,07,149,-0,25,06,322,-0,17,42,086,42*76
\c:1494204296998*62\$GPGSV,3,3,12,03,13,038,-0,12,46,308,43,23,02,072,-0,24,18,260,35*76
\c:1494204297025*6C\$GPZDA,005025.00,08,05,2017,00,00*6D
\c:1494204297025*6C\$GPGGA,005025,4206.5916,N,08750.5425,W,1,06,2.97,219.34,M,-34.268,M,,*74
\c:1494204297025*6C\$GPRMC,005025,A,4206.5916,N,08750.5425,W,0.0341,22.116,080517,,*01
\c:1494204297025*6C\$GPGSA,A,3,00,00,00,00,00,00,,,,,,,5.0,3.0,4.0*30
\c:1494204297992*69\$GPGSV,3,1,12,02,49,247,43,131,33,220,32,06,80,019,43,133,43,196,-0*67
\c:1494204297992*69\$GPGSV,3,2,12,19,60,068,42,28,07,149,-0,25,06,322,-0,17,42,086,42*76
\c:1494204297992*69\$GPGSV,3,3,12,03,13,038,-0,12,46,308,43,23,02,072,-0,24,18,260,34*77
\c:1494204298018*6D\$GPZDA,005026.00,08,05,2017,00,00*6E
\c:1494204298018*6D\$GPGGA,005026,4206.5915,N,08750.5425,W,1,06,2.97,219.05,M,-34.268,M,,*76
\c:1494204298019*6C\$GPRMC,005026,A,4206.5915,N,08750.5425,W,0.0307,14.173,080517,,*05
\c:1494204298019*6C\$GPGSA,A,3,00,00,00,00,00,00,,,,,,,5.0,3.0,4.0*30
\c:1494204299000*65\$GPGSV,3,1,12,02,49,247,43,131,33,220,32,06,80,019,44,133,43,196,-0*60
\c:1494204299000*65\$GPGSV,3,2,12,19,60,068,42,28,07,149,-0,25,06,322,-0,17,42,086,42*76
\c:1494204299001*64\$GPGSV,3,3,12,03,13,038,-0,12,46,308,43,23,02,072,-0,24,18,260,34*77
\c:1494204299029*6E\$GPZDA,005027.00,08,05,2017,00,00*6F
\c:1494204299029*6E\$GPGGA,005027,4206.5915,N,08750.5425,W,1,06,2.97,218.66,M,-34.268,M,,*73
\c:1494204299030*66\$GPRMC,005027,A,4206.5915,N,08750.5425,W,0.0189,272.950,080517,,*3B
\c:1494204299030*66\$GPGSA,A,3,00,00,00,00,00,00,,,,,,,5.0,3.0,4.0*30
\c:1494204299993*66\$GPGSV,3,1,12,02,50,248,43,131,33,220,32,06,80,019,44,133,43,196,-0*67
\c:1494204299993*66\$GPGSV,3,2,12,19,60,068,42,28,07,149,-0,25,06,322,-0,17,42,086,42*76
\c:1494204299993*66\$GPGSV,3,3,12,03,13,038,-0,12,46,308,43,23,02,072,-0,24,18,260,34*77
\c:1494204300017*62\$GPZDA,005028.00,08,05,2017,00,00*60
\c:1494204300017*62\$GPGGA,005028,4206.5914,N,08750.5425,W,1,06,2.98,218.19,M,-34.268,M,,*7A
\c:1494204300018*6D\$GPRMC,005028,A,4206.5914,N,08750.5425,W,0.0548,16.844,080517,,*08
\c:1494204300018*6D\$GPGSA,A,3,00,00,00,00,00,00,,,,,,,5.0,3.0,4.0*30
\c:1494204300993*67\$GPGSV,3,1,12,02,50,248,43,131,33,220,32,06,80,019,44,133,43,196,-0*67
\c:1494204300994*60\$GPGSV,3,2,12,19,60,068,42,28,07,149,-0,25,06,322,-0,17,42,086,42*76
\c:1494204300994*60\$GPGSV,3,3,12,03,13,038,-0,12,46,308,43,23,02,072,-0,24,18,260,34*77
\c:1494204301013*67\$GPZDA,005029.00,08,05,2017,00,00*61
\c:1494204301014*60\$GPGGA,005029,4206.5913,N,08750.5424,W,1,06,2.98,217.64,M,-34.268,M,,*78
\c:1494204301014*60\$GPRMC,005029,A,4206.5913,N,08750.5424,W,0.0128,119.534,080517,,*39
\c:1494204301014*60\$GPGSA,A,3,00,00,00,00,00,00,,,,,,,5.0,3.0,4.0*30
\c:1494204302000*66\$GPGSV,3,1,12,02,50,248,44,131,33,220,34,06,80,019,44,133,43,196,-0*66
\c:1494204302001*67\$GPGSV,3,2,12,19,60,068,42,28,07,149,-0,25,06,322,-0,17,42,086,42*76
\c:1494204302001*67\$GPGSV,3,3,12,03,13,038,-0,12,46,308,43,23,02,072,-0,24,18,260,34*77
\c:1494204302020*64\$GPZDA,005030.00,08,05,2017,00,00*69
\c:1494204302020*64\$GPGGA,005030,4206.5913,N,08750.5424,W,1,06,2.98,217.06,M,-34.268,M,,*74
\c:1494204302020*64\$GPRMC,005030,A,4206.5913,N,08750.5424,W,0.0227,17.864,080517,,*0A
\c:1494204302020*64\$GPGSA,A,3,00,00,00,00,00,00,,,,,,,5.0,3.0,4.0*30
\c:1494204302994*62\$GPGSV,3,1,12,02,50,248,44,131,33,220,34,06,80,019,44,133,43,196,-0*66
\c:1494204302994*62\$GPGSV,3,2,12,19,60,068,42,28,07,149,-0,25,06,322,-0,17,42,086,42*76
\c:1494204302994*62\$GPGSV,3,3,12,03,13,038,-0,12,46,308,43,23,02,072,-0,24,18,260,34*77
\c:1494204303016*60\$GPZDA,005031.00,08,05,2017,00,00*68
\c:1494204303016*60\$GPGGA,005031,4206.5913,N,08750.5423,W,1,06,2.98,216.46,M,-34.268,M,,*77
\c:1494204303016*60\$GPRMC,005031,A,4206.5913,N,08750.5423,W,0.0278,16.438,080517,,*02
\c:1494204303016*60\$GPGSA,A,3,00,00,00,00,00,00,,,,,,,5.0,3.0,4.0*30
\c:1494204303994*63\$GPGSV,3,1,12,02,50,248,44,131,33,220,36,06,80,019,44,133,43,196,-0*64
\c:1494204303994*63\$GPGSV,3,2,12,19,60,068,42,28,07,149,-0,25,06,322,-0,17,42,086,42*76
\c:1494204303994*63\$GPGSV,3,3,12,03,12,038,-0,12,46,308,43,23,02,072,-0,24,18,260,34*76
\c:1494204304018*69\$GPZDA,005032.00,08,05,2017,00,00*6B
\c:1494204304018*69\$GPGGA,005032,4206.5912,N,08750.5422,W,1,06,2.98,215.94,M,-34.268,M,,*78
\c:1494204304018*69\$GPRMC,005032,A,4206.5912,N,08750.5422,W,0.0095,31.183,080517,,*00
\c:1494204304018*69\$GPGSA,A,3,00,00,00,00,00,00,,,,,,,5.0,3.0,4.0*30
\c:1494204304998*68\$GPGSV,3,1,12,02,50,248,44,131,33,220,35,06,80,019,44,133,43,196,-0*67
\c:1494204304998*68\$GPGSV,3,2,12,19,60,068,42,28,07,149,-0,25,06,322,-0,17,42,086,42*76
\c:1494204304998*68\$GPGSV,3,3,12,03,12,038,-0,12,46,308,43,23,02,072,-0,24,18,260,35*77
\c:1494204305021*62\$GPZDA,005033.00,08,05,2017,00,00*6A
\c:1494204305021*62\$GPGGA,005033,4206.5912,N,08750.5421,W,1,06,2.98,215.46,M,-34.268,M,,*75
\c:1494204305021*62\$GPRMC,005033,A,4206.5912,N,08750.5421,W,0.0041,66.769,080517,,*0B
\c:1494204305021*62\$GPGSA,A,3,00,00,00,00,00,00,,,,,,,5.0,3.0,4.0*30
\c:1494204305995*64\$GPGSV,3,1,12,02,50,248,44,131,33,220,37,06,80,019,44,133,43,196,-0*65
\c:1494204305995*64\$GPGSV,3,2,12,19,60,068,43,28,07,149,-0,25,06,322,-0,17,42,086,42*77
\c:1494204305995*64\$GPGSV,3,3,12,03,12,038,-0,12,46,308,43,23,02,072,-0,24,18,260,35*77
\c:1494204306019*6A\$GPZDA,005034.00,08,05,2017,00,00*6D
\c:1494204306019*6A\$GPGGA,005034,4206.5912,N,08750.5420,W,1,06,2.98,214.96,M,-34.268,M,,*7F
\c:1494204306019*6A\$GPRMC,005034,A,4206.5912,N,08750.5420,W,0.0284,11.467,080517,,*0B
\c:1494204306019*6A\$GPGSA,A,3,00,00,00,00,00,00,,,,,,,5.0,3.0,4.0*30
\c:1494204306993*61\$GPGSV,3,1,12,02,50,248,44,131,33,220,36,06,80,019,44,133,43,196,-0*64
\c:1494204306993*61\$GPGSV,3,2,12,19,60,068,43,28,07,149,-0,25,06,322,-0,17,42,086,42*77
\c:1494204306993*61\$GPGSV,3,3,12,03,12,038,-0,12,46,308,43,23,02,072,-0,24,18,260,35*77
\c:1494204307016*64\$GPZDA,005035.00,08,05,2017,00,00*6C
\c:1494204307016*64\$GPGGA,005035,4206.5912,N,08750.5419,W,1,06,2.98,214.41,M,-34.268,M,,*7E
\c:1494204307016*64\$GPRMC,005035,A,4206.5912,N,08750.5419,W,0.0249,9.438,080517,,*32
\c:1494204307016*64\$GPGSA,A,3,00,00,00,00,00,00,,,,,,,5.0,3.0,4.0*30
\c:1494204308000*6C\$GPGSV,3,1,12,02,50,248,44,131,33,220,37,06,80,019,43,133,43,196,-0*62
\c:1494204308000*6C\$GPGSV,3,2,12,19,60,068,43,28,07,149,-0,25,06,322,-0,17,42,086,42*77
\c:1494204308000*6C\$GPGSV,3,3,12,03,12,038,-0,12,46,308,43,23,02,072,-0,24,18,260,34*76
\c:1494204308024*6A\$GPZDA,005036.00,08,05,2017,00,00*6F
\c:1494204308024*6A\$GPGGA,005036,4206.5912,N,08750.5418,W,1,06,2.98,214.03,M,-34.268,M,,*7A
\c:1494204308024*6A\$GPRMC,005036,A,4206.5912,N,08750.5418,W,0.0353,1.494,080517,,*34
\c:1494204308025*6B\$GPGSA,A,3,00,00,00,00,00,00,,,,,,,5.0,3.0,4.0*30
\c:1494204308993*6F\$GPGSV,3,1,12,02,50,248,44,131,33,220,36,06,80,019,43,133,43,196,-0*63
\c:1494204308993*6F\$GPGSV,3,2,12,19,60,068,43,28,07,149,-0,25,06,322,-0,17,42,086,42*77
\c:1494204308993*6F\$GPGSV,3,3,12,03,12,038,-0,12,46,308,43,23,02,072,-0,24,18,260,35*77
\c:1494204309017*6B\$GPZDA,005037.00,08,05,2017,00,00*6E
\c:1494204309017*6B\$GPGGA,005037,4206.5913,N,08750.5417,W,1,06,2.98,213.50,M,-34.268,M,,*74
\c:1494204309018*64\$GPRMC,005037,A,4206.5913,N,08750.5417,W,0.0150,215.371,080517,,*31
\c:1494204309018*64\$GPGSA,A,3,00,00,00,00,00,00,,,,,,,5.0,3.0,4.0*30
\c:1494204309995*68\$GPGSV,3,1,12,02,50,248,44,131,33,220,37,06,80,019,43,133,43,196,-0*62
\c:1494204309995*68\$GPGSV,3,2,12,19,60,068,43,28,07,149,-0,25,06,322,-0,17,42,086,42*77
\c:1494204309996*6B\$GPGSV,3,3,12,03,12,038,-0,12,46,308,43,23,02,072,-0,24,18,260,35*77
\c:1494204310019*6D\$GPZDA,005038.00,08,05,2017,00,00*61
\c:1494204310020*67\$GPGGA,005038,4206.5913,N,08750.5416,W,1,06,2.98,213.04,M,-34.268,M,,*7B
\c:1494204310020*67\$GPRMC,005038,A,4206.5913,N,08750.5416,W,0.0220,11.876,080517,,*01
\c:1494204310020*67\$GPGSA,A,3,00,00,00,00,00,00,,,,,,,5.0,3.0,4.0*30
\c:1494204310995*60\$GPGSV,3,1,12,02,50,248,44,131,33,220,36,06,80,019,43,133,43,196,-0*63
\c:1494204310996*63\$GPGSV,3,2,12,19,60,068,43,28,07,149,-0,25,06,322,-0,17,42,086,42*77
\c:1494204310996*63\$GPGSV,3,3,12,03,12,038,-0,12,46,308,43,23,02,072,-0,24,18,260,36*74
\c:1494204311019*6C\$GPZDA,005039.00,08,05,2017,00,00*60
\c:1494204311019*6C\$GPGGA,005039,4206.5913,N,08750.5414,W,1,06,2.98,212.67,M,-34.268,M,,*7C
\c:1494204311019*6C\$GPRMC,005039,A,4206.5913,N,08750.5414,W,0.0203,359.231,080517,,*35
\c:1494204311019*6C\$GPGSA,A,3,00,00,00,00,00,00,,,,,,,5.0,3.0,4.0*30
\c:1494204311998*6C\$GPGSV,3,1,12,02,50,248,44,131,33,220,36,06,80,019,43,133,43,196,-0*63
\c:1494204311998*6C\$GPGSV,3,2,12,19,60,068,43,28,07,149,-0,25,06,322,-0,17,42,086,42*77
\c:1494204311999*6D\$GPGSV,3,3,12,03,12,038,-0,12,46,308,43,23,02,072,-0,24,18,260,36*74
\c:1494204312019*6F\$GPZDA,005040.00,08,05,2017,00,00*6E
\c:1494204312019*6F\$GPGGA,005040,4206.5914,N,08750.5413,W,1,06,2.98,212.29,M,-34.268,M,,*78
\c:1494204312019*6F\$GPRMC,005040,A,4206.5914,N,08750.5413,W,0.0276,356.499,080517,,*32
\c:1494204312019*6F\$GPGSA,A,3,00,00,00,00,00,00,,,,,,,5.0,3.0,4.0*30
\c:1494204313001*67\$GPGSV,3,1,12,02,50,248,44,131,33,220,35,06,80,019,42,133,43,196,-0*61
\c:1494204313001*67\$GPGSV,3,2,12,19,60,068,43,28,07,149,-0,25,06,322,-0,17,42,086,42*77
\c:1494204313001*67\$GPGSV,3,3,12,03,12,038,-0,12,46,308,43,23,02,072,-0,24,18,260,36*74
\c:1494204313022*66\$GPZDA,005041.00,08,05,2017,00,00*6F
\c:1494204313022*66\$GPGGA,005041,4206.5914,N,08750.5412,W,1,06,2.98,212.01,M,-34.268,M,,*72
\c:1494204313022*66\$GPRMC,005041,A,4206.5914,N,08750.5412,W,0.0208,2.608,080517,,*33
\c:1494204313022*66\$GPGSA,A,3,00,00,00,00,00,00,,,,,,,5.0,3.0,4.0*30
\c:1494204313998*6E\$GPGSV,3,1,12,02,50,248,44,131,33,220,35,06,80,019,42,133,43,196,-0*61
\c:1494204313998*6E\$GPGSV,3,2,12,19,60,068,42,28,07,149,-0,25,06,322,-0,17,42,086,42*76
\c:1494204313998*6E\$GPGSV,3,3,12,03,12,038,-0,12,46,308,43,23,02,072,-0,24,18,260,36*74
\c:1494204314017*67\$GPZDA,005042.00,08,05,2017,00,00*6C
\c:1494204314017*67\$GPGGA,005042,4206.5915,N,08750.5411,W,1,06,2.98,211.81,M,-34.268,M,,*78
\c:1494204314017*67\$GPRMC,005042,A,4206.5915,N,08750.5411,W,0.0082,42.339,080517,,*01
\c:1494204314017*67\$GPGSA,A,3,00,00,00,00,00,00,,,,,,,5.0,3.0,4.0*30
\c:1494204314998*69\$GPGSV,3,1,12,02,50,248,44,131,33,220,35,06,80,020,42,133,43,196,-0*6B
\c:1494204314998*69\$GPGSV,3,2,12,19,60,068,42,28,07,149,-0,25,06,322,-0,17,42,086,43*77
\c:1494204314998*69\$GPGSV,3,3,12,03,12,038,-0,12,46,308,43,23,02,072,-0,24,18,260,36*74
\c:1494204315019*68\$GPZDA,005043.00,08,05,2017,00,00*6D
\c:1494204315019*68\$GPGGA,005043,4206.5915,N,08750.5410,W,1,06,2.98,211.68,M,-34.268,M,,*7F
\c:1494204315019*68\$GPRMC,005043,A,4206.5915,N,08750.5410,W,0.0138,21.862,080517,,*01
\c:1494204315019*68\$GPGSA,A,3,00,00,00,00,00,00,,,,,,,5.0,3.0,4.0*30
\c:14942043151000*51\$GPGSV,3,1,12,02,50,248,44,131,33,220,34,06,80,020,42,133,43,196,-0*6A
\c:1494204316000*63\$GPGSV,3,2,12,19,60,068,42,28,07,149,-0,25,06,322,-0,17,42,086,43*77
\c:1494204316000*63\$GPGSV,3,3,12,03,12,038,-0,12,46,308,43,23,02,072,-0,24,18,260,36*74
\c:1494204316023*62\$GPZDA,005044.00,08,05,2017,00,00*6A
\c:1494204316023*62\$GPGGA,005044,4206.5916,N,08750.5410,W,1,06,2.98,211.62,M,-34.268,M,,*71
\c:1494204316023*62\$GPRMC,005044,A,4206.5916,N,08750.5410,W,0.0262,347.414,080517,,*37
\c:1494204316023*62\$GPGSA,A,3,00,00,00,00,00,00,,,,,,,5.0,3.0,4.0*30
\c:1494204316998*6B\$GPGSV,3,1,12,02,50,248,44,131,33,220,36,06,80,020,42,133,43,196,-0*68
\c:1494204316998*6B\$GPGSV,3,2,12,19,60,068,42,28,07,149,-0,25,06,322,-0,17,42,086,43*77
\c:1494204316998*6B\$GPGSV,3,3,12,03,12,038,-0,12,46,308,43,23,02,072,-0,24,18,260,37*75
\c:1494204317038*69\$GPZDA,005045.00,08,05,2017,00,00*6B
\c:1494204317038*69\$GPGGA,005045,4206.5916,N,08750.5409,W,1,06,2.98,211.92,M,-34.268,M,,*77
\c:1494204317039*68\$GPRMC,005045,A,4206.5916,N,08750.5409,W,0.0099,7.179,080517,,*31
\c:1494204317039*68\$GPGSA,A,3,00,00,00,00,00,00,,,,,,,5.0,3.0,4.0*30
\c:1494204317998*6A\$GPGSV,3,1,12,02,50,248,43,131,33,220,35,06,80,020,42,133,43,196,-0*6C
\c:1494204317998*6A\$GPGSV,3,2,12,19,60,068,42,28,07,149,-0,25,06,322,-0,17,42,086,43*77
\c:1494204317999*6B\$GPGSV,3,3,12,03,12,038,-0,12,46,308,43,23,02,072,-0,24,18,260,37*75
\c:1494204318019*65\$GPZDA,005046.00,08,05,2017,00,00*68
\c:1494204318020*6F\$GPGGA,005046,4206.5916,N,08750.5409,W,1,06,2.98,212.18,M,-34.268,M,,*75
\c:1494204318020*6F\$GPRMC,005046,A,4206.5916,N,08750.5409,W,0.0136,13.286,080517,,*00
\c:1494204318020*6F\$GPGSA,A,3,00,00,00,00,00,00,,,,,,,5.0,3.0,4.0*30
\c:1494204318997*6A\$GPGSV,3,1,12,02,50,248,43,131,33,220,35,06,80,020,42,133,43,196,-0*6C
\c:1494204318997*6A\$GPGSV,3,2,12,19,60,068,42,28,07,149,-0,25,06,322,-0,17,42,086,43*77
\c:1494204318997*6A\$GPGSV,3,3,12,03,12,038,-0,12,46,308,43,23,02,072,-0,24,18,260,37*75
\c:1494204319016*6B\$GPZDA,005047.00,08,05,2017,00,00*69
\c:1494204319016*6B\$GPGGA,005047,4206.5916,N,08750.5408,W,1,06,2.98,212.50,M,-34.268,M,,*79
\c:1494204319017*6A\$GPRMC,005047,A,4206.5916,N,08750.5408,W,0.0171,202.861,080517,,*32
\c:1494204319017*6A\$GPGSA,A,3,00,00,00,00,00,00,,,,,,,5.0,3.0,4.0*30
\c:1494204319997*6B\$GPGSV,3,1,12,02,50,248,43,131,33,220,34,06,80,020,42,133,43,196,-0*6D
\c:1494204319997*6B\$GPGSV,3,2,12,19,60,068,42,28,07,149,-0,25,06,322,-0,17,42,086,43*77
\c:1494204319998*64\$GPGSV,3,3,12,03,12,038,-0,12,46,308,43,23,02,072,-0,24,18,260,37*75
\c:1494204320021*65\$GPZDA,005048.00,08,05,2017,00,00*66
\c:1494204320021*65\$GPGGA,005048,4206.5916,N,08750.5408,W,1,06,2.98,212.69,M,-34.268,M,,*7C
\c:1494204320021*65\$GPRMC,005048,A,4206.5916,N,08750.5408,W,0.0196,53.980,080517,,*0C
\c:1494204320021*65\$GPGSA,A,3,00,00,00,00,00,00,,,,,,,5.0,3.0,4.0*30
\c:1494204320995*63\$GPGSV,3,1,12,02,50,248,43,131,33,220,34,06,80,020,42,133,43,196,-0*6D
\c:1494204320996*60\$GPGSV,3,2,12,19,60,068,42,28,07,149,-0,25,06,322,-0,17,42,086,43*77
\c:1494204320996*60\$GPGSV,3,3,12,03,12,038,-0,12,46,308,43,23,02,072,-0,24,18,260,37*75
\c:1494204321017*61\$GPZDA,005049.00,08,05,2017,00,00*67
\c:1494204321017*61\$GPGGA,005049,4206.5916,N,08750.5407,W,1,06,2.98,212.97,M,-34.268,M,,*73
\c:1494204321017*61\$GPRMC,005049,A,4206.5916,N,08750.5407,W,0.0163,355.305,080517,,*3A
\c:1494204321017*61\$GPGSA,A,3,00,00,00,00,00,00,,,,,,,5.0,3.0,4.0*30
\c:1494204321998*6F\$GPGSV,3,1,12,02,50,248,43,131,33,220,34,06,80,020,41,133,43,196,-0*6E
\c:1494204321998*6F\$GPGSV,3,2,12,19,60,068,42,28,07,149,-0,25,06,322,-0,17,42,086,43*77
\c:1494204321998*6F\$GPGSV,3,3,12,03,12,038,-0,12,46,308,44,23,02,072,-0,24,18,260,37*72
\c:1494204322017*62\$GPZDA,005050.00,08,05,2017,00,00*6F
\c:1494204322017*62\$GPGGA,005050,4206.5916,N,08750.5407,W,1,06,2.98,213.27,M,-34.268,M,,*71
\c:1494204322017*62\$GPRMC,005050,A,4206.5916,N,08750.5407,W,0.0293,355.292,080517,,*31
\c:1494204322017*62\$GPGSA,A,3,00,00,00,00,00,00,,,,,,,5.0,3.0,4.0*30
\c:1494204322998*6C\$GPGSV,3,1,12,02,50,248,43,131,33,220,33,06,80,020,41,133,43,196,-0*69
\c:1494204322998*6C\$GPGSV,3,2,12,19,60,068,42,28,07,149,-0,25,06,322,-0,17,42,086,43*77
\c:1494204322998*6C\$GPGSV,3,3,12,03,12,038,-0,12,46,308,44,23,02,072,-0,24,18,260,37*72
\c:1494204323017*63\$GPZDA,005051.00,08,05,2017,00,00*6E
\c:1494204323017*63\$GPGGA,005051,4206.5915,N,08750.5406,W,1,06,2.98,213.55,M,-34.268,M,,*77
\c:1494204323017*63\$GPRMC,005051,A,4206.5915,N,08750.5406,W,0.0115,358.405,080517,,*3A
\c:1494204323017*63\$GPGSA,A,3,00,00,00,00,00,00,,,,,,,5.0,3.0,4.0*30
\c:1494204323999*6C\$GPGSV,3,1,12,02,50,248,43,131,33,220,33,06,80,020,41,133,43,196,-0*69
\c:1494204323999*6C\$GPGSV,3,2,12,19,60,068,42,28,07,149,-0,25,06,322,-0,17,42,086,42*76
\c:1494204323999*6C\$GPGSV,3,3,12,03,12,038,-0,12,46,308,44,23,02,072,-0,24,18,260,37*72
\c:1494204324021*61\$GPZDA,005052.00,08,05,2017,00,00*6D
\c:1494204324021*61\$GPGGA,005052,4206.5914,N,08750.5406,W,1,06,2.98,213.81,M,-34.268,M,,*7C
\c:1494204324021*61\$GPRMC,005052,A,4206.5914,N,08750.5406,W,0.0199,60.436,080517,,*04
\c:1494204324021*61\$GPGSA,A,3,00,00,00,00,00,00,,,,,,,5.0,3.0,4.0*30
\c:1494204324994*66\$GPGSV,3,1,12,02,50,248,43,131,33,220,33,06,80,020,41,133,43,196,-0*69
\c:1494204324994*66\$GPGSV,3,2,12,19,60,068,42,28,07,149,-0,25,06,322,-0,17,42,086,42*76
\c:1494204324994*66\$GPGSV,3,3,12,03,12,038,-0,12,46,308,44,23,02,072,-0,24,18,260,37*72
\c:1494204325015*67\$GPZDA,005053.00,08,05,2017,00,00*6C
\c:1494204325015*67\$GPGGA,005053,4206.5913,N,08750.5405,W,1,06,2.98,213.99,M,-34.268,M,,*70
\c:1494204325015*67\$GPRMC,005053,A,4206.5913,N,08750.5405,W,0.0142,40.712,080517,,*00
\c:1494204325015*67\$GPGSA,A,3,00,00,00,00,00,00,,,,,,,5.0,3.0,4.0*30
\c:1494204325995*66\$GPGSV,3,1,12,02,50,248,43,131,33,220,33,06,80,020,41,133,43,196,-0*69
\c:1494204325995*66\$GPGSV,3,2,12,19,60,068,42,28,07,149,-0,25,06,322,-0,17,42,086,42*76
\c:1494204325995*66\$GPGSV,3,3,12,03,12,038,-0,12,46,308,44,23,02,072,-0,24,18,260,37*72
\c:1494204326023*61\$GPZDA,005054.00,08,05,2017,00,00*6B
\c:1494204326023*61\$GPGGA,005054,4206.5912,N,08750.5404,W,1,06,2.98,214.10,M,-34.268,M,,*71
\c:1494204326023*61\$GPRMC,005054,A,4206.5912,N,08750.5404,W,0.0063,337.028,080517,,*38
\c:1494204326023*61\$GPGSA,A,3,00,00,00,00,00,00,,,,,,,5.0,3.0,4.0*30
\c:1494204326995*65\$GPGSV,3,1,12,02,50,248,43,131,33,220,33,06,80,020,41,133,43,196,-0*69
\c:1494204326995*65\$GPGSV,3,2,12,19,60,068,42,28,07,149,-0,25,06,322,-0,17,42,086,42*76
\c:1494204326995*65\$GPGSV,3,3,12,03,12,038,-0,12,46,308,44,23,02,072,-0,24,18,260,38*7D
\c:1494204327016*66\$GPZDA,005055.00,08,05,2017,00,00*6A
\c:1494204327016*66\$GPGGA,005055,4206.5911,N,08750.5404,W,1,06,2.98,214.22,M,-34.268,M,,*72
\c:1494204327016*66\$GPRMC,005055,A,4206.5911,N,08750.5404,W,0.0060,11.364,080517,,*05
\c:1494204327016*66\$GPGSA,A,3,00,00,00,00,00,00,,,,,,,5.0,3.0,4.0*30
\c:1494204327997*66\$GPGSV,3,1,12,02,50,248,42,131,33,220,32,06,80,020,40,133,43,196,-0*68
\c:1494204327997*66\$GPGSV,3,2,12,19,60,068,43,28,07,149,-0,25,06,322,-0,17,42,086,42*77
\c:1494204327997*66\$GPGSV,3,3,12,03,12,038,-0,12,46,308,44,23,02,072,-0,24,18,260,37*72
\c:1494204328018*67\$GPZDA,005056.00,08,05,2017,00,00*69
\c:1494204328018*67\$GPGGA,005056,4206.5909,N,08750.5403,W,1,06,2.98,214.35,M,-34.268,M,,*79
\c:1494204328019*66\$GPRMC,005056,A,4206.5909,N,08750.5403,W,0.0399,14.949,080517,,*0D
\c:1494204328019*66\$GPGSA,A,3,00,00,00,00,00,00,,,,,,,5.0,3.0,4.0*30
\c:1494204328992*6C\$GPGSV,3,1,12,02,50,248,42,131,33,220,32,06,80,020,40,133,43,196,-0*68
\c:1494204328992*6C\$GPGSV,3,2,12,19,60,068,42,28,07,149,-0,25,06,322,-0,17,42,086,42*76
\c:1494204328993*6D\$GPGSV,3,3,12,03,12,038,-0,12,46,308,44,23,02,072,-0,24,18,260,37*72
\c:1494204329020*6D\$GPZDA,005057.00,08,05,2017,00,00*68
\c:1494204329021*6C\$GPGGA,005057,4206.5908,N,08750.5403,W,1,06,2.98,214.53,M,-34.268,M,,*79
\c:1494204329021*6C\$GPRMC,005057,A,4206.5908,N,08750.5403,W,0.0460,333.255,080517,,*3C
\c:1494204329021*6C\$GPGSA,A,3,00,00,00,00,00,00,,,,,,,5.0,3.0,4.0*30
\c:1494204330000*67\$GPGSV,3,1,12,02,50,248,42,131,33,220,32,06,80,020,40,133,43,196,-0*68
\c:1494204330001*66\$GPGSV,3,2,12,19,60,068,42,28,07,149,-0,25,06,322,-0,17,42,086,41*75
\c:1494204330001*66\$GPGSV,3,3,12,03,12,038,-0,12,46,308,44,23,02,072,-0,24,18,260,37*72
\c:1494204330023*66\$GPZDA,005058.00,08,05,2017,00,00*67
\c:1494204330024*61\$GPGGA,005058,4206.5907,N,08750.5402,W,1,06,2.98,214.75,M,-34.268,M,,*7C
\c:1494204330024*61\$GPRMC,005058,A,4206.5907,N,08750.5402,W,0.0158,165.743,080517,,*30
\c:1494204330024*61\$GPGSA,A,3,00,00,00,00,00,00,,,,,,,5.0,3.0,4.0*30
\c:1494204330992*65\$GPGSV,3,1,12,02,50,248,42,131,33,220,32,06,80,020,40,133,43,196,-0*68
\c:1494204330993*64\$GPGSV,3,2,12,19,60,068,42,28,07,149,-0,25,06,322,-0,17,42,086,42*76
\c:1494204330993*64\$GPGSV,3,3,12,03,12,038,-0,12,46,308,44,23,02,072,-0,24,18,260,37*72
\c:1494204331016*61\$GPZDA,005059.00,08,05,2017,00,00*66
\c:1494204331017*60\$GPGGA,005059,4206.5907,N,08750.5402,W,1,06,2.98,214.99,M,-34.268,M,,*7F
\c:1494204331017*60\$GPRMC,005059,A,4206.5907,N,08750.5402,W,0.0437,356.271,080517,,*3B
\c:1494204331017*60\$GPGSA,A,3,00,00,00,00,00,00,,,,,,,5.0,3.0,4.0*30
\c:1494204331998*6E\$GPGSV,3,1,12,02,50,248,42,131,33,220,32,06,80,020,40,133,43,196,-0*68
\c:1494204331999*6F\$GPGSV,3,2,12,19,60,068,43,28,07,149,-0,25,06,322,-0,17,42,086,42*77
\c:1494204331999*6F\$GPGSV,3,3,12,03,12,038,-0,12,46,308,44,23,02,072,-0,24,18,260,37*72
\c:1494204332017*63\$GPZDA,005100.00,08,05,2017,00,00*6B
\c:1494204332017*63\$GPGGA,005100,4206.5907,N,08750.5402,W,1,06,2.98,215.24,M,-34.268,M,,*75
\c:1494204332017*63\$GPRMC,005100,A,4206.5907,N,08750.5402,W,0.0179,177.646,080517,,*38
\c:1494204332017*63\$GPGSA,A,3,00,00,00,00,00,00,,,,,,,5.0,3.0,4.0*30
\c:1494204332995*60\$GPGSV,3,1,12,02,50,248,42,131,33,220,32,06,80,020,40,133,43,196,-0*68
\c:1494204332995*60\$GPGSV,3,2,12,19,60,068,43,28,07,149,-0,25,06,322,-0,17,42,086,42*77
\c:1494204332995*60\$GPGSV,3,3,12,03,12,038,-0,12,46,308,44,23,02,072,-0,24,18,260,38*7D
\c:1494204333017*62\$GPZDA,005101.00,08,05,2017,00,00*6A
\c:1494204333017*62\$GPGGA,005101,4206.5906,N,08750.5402,W,1,06,2.98,215.48,M,-34.268,M,,*7F
\c:1494204333017*62\$GPRMC,005101,A,4206.5906,N,08750.5402,W,0.0601,1.961,080517,,*3A
\c:1494204333017*62\$GPGSA,A,3,00,00,00,00,00,00,,,,,,,5.0,3.0,4.0*30
\c:1494204333993*67\$GPGSV,3,1,12,02,50,248,43,131,33,220,32,06,80,020,40,133,43,196,-0*69
\c:1494204333993*67\$GPGSV,3,2,12,19,60,068,42,28,07,149,-0,25,06,322,-0,17,42,086,42*76
\c:1494204333993*67\$GPGSV,3,3,12,03,12,038,-0,12,46,308,44,23,02,072,-0,24,18,260,38*7D
\c:1494204334016*64\$GPZDA,005102.00,08,05,2017,00,00*69
\c:1494204334016*64\$GPGGA,005102,4206.5906,N,08750.5402,W,1,06,2.98,215.80,M,-34.268,M,,*78
\c:1494204334016*64\$GPRMC,005102,A,4206.5906,N,08750.5402,W,0.1177,184.939,080517,,*3F
\c:1494204334016*64\$GPGSA,A,3,00,00,00,00,00,00,,,,,,,5.0,3.0,4.0*30
\c:1494204334999*6A\$GPGSV,3,1,12,02,50,248,42,131,33,220,-0,06,80,020,39,133,43,196,-0*7A
\c:1494204334999*6A\$GPGSV,3,2,12,19,60,068,42,28,07,149,-0,25,06,322,-0,17,42,086,41*75
\c:1494204334999*6A\$GPGSV,3,3,12,03,12,038,-0,12,46,308,44,23,02,072,-0,24,18,260,37*72
\c:1494204335007*65\$GPZDA,005103.00,08,05,2017,00,00*68
\c:1494204335008*6A\$GPGGA,005103,4206.5905,N,08750.5402,W,1,06,2.98,215.84,M,-34.268,M,,*7E
\c:1494204335008*6A\$GPRMC,005103,A,4206.5905,N,08750.5402,W,0.1177,184.939,080517,,*3D
\c:1494204335008*6A\$GPGSA,A,3,00,00,00,00,00,00,,,,,,,5.0,3.0,4.0*30
\c:1494204335996*64\$GPGSV,3,1,12,02,50,248,-0,131,33,220,-0,06,80,020,-0,133,43,196,-0*76
\c:1494204335996*64\$GPGSV,3,2,12,19,60,068,42,28,07,149,-0,25,06,322,-0,17,42,086,39*7A
\c:1494204335996*64\$GPGSV,3,3,12,03,12,038,-0,12,46,308,42,23,02,072,-0,24,18,260,-0*6D
\c:1494204336004*65\$GPZDA,005104.00,08,05,2017,00,00*6F
\c:1494204336005*64\$GPGGA,005104,4206.5905,N,08750.5402,W,1,06,2.98,215.86,M,-34.268,M,,*7B
\c:1494204336005*64\$GPRMC,005104,A,4206.5905,N,08750.5402,W,0.1177,184.939,080517,,*3A
\c:1494204336005*64\$GPGSA,A,3,00,00,00,00,00,00,,,,,,,5.0,3.0,4.0*30
\c:1494204336996*67\$GPGSV,3,1,12,02,50,248,-0,131,33,220,-0,06,80,020,-0,133,43,196,-0*76
\c:1494204336996*67\$GPGSV,3,2,12,19,60,068,41,28,07,149,-0,25,06,322,-0,17,42,086,39*79
\c:1494204336996*67\$GPGSV,3,3,12,03,12,038,-0,12,46,308,42,23,02,072,-0,24,18,260,-0*6D
\c:1494204337003*63\$GPZDA,005105.00,08,05,2017,00,00*6E
\c:1494204337004*64\$GPGGA,005105,4206.5905,N,08750.5402,W,1,06,2.98,215.89,M,-34.268,M,,*75
\c:1494204337004*64\$GPRMC,005105,A,4206.5905,N,08750.5402,W,0.1177,184.939,080517,,*3B
\c:1494204337004*64\$GPGSA,A,3,00,00,00,00,00,00,,,,,,,5.0,3.0,4.0*30
\c:1494204337998*68\$GPGSV,3,1,12,02,50,248,-0,131,33,220,-0,06,80,020,33,133,43,196,-0*6B
\c:1494204337999*69\$GPGSV,3,2,12,19,60,068,-0,28,07,149,-0,25,06,322,-0,17,42,086,38*60
\c:1494204337999*69\$GPGSV,3,3,12,03,12,038,-0,12,47,307,41,23,02,072,-0,24,18,260,-0*60
\c:1494204338006*69\$GPZDA,005106.00,08,05,2017,00,00*6D
\c:1494204338006*69\$GPGGA,005106,4206.5904,N,08750.5402,W,1,06,2.98,215.90,M,-34.268,M,,*7F
\c:1494204338006*69\$GPRMC,005106,A,4206.5904,N,08750.5402,W,0.1177,184.939,080517,,*39
\c:1494204338006*69\$GPGSA,A,3,00,00,00,00,00,00,,,,,,,5.0,3.0,4.0*30
\c:1494204338995*6A\$GPGSV,3,1,12,02,50,248,30,131,33,220,-0,06,80,020,34,133,43,196,-0*72
\c:1494204338995*6A\$GPGSV,3,2,12,19,60,068,-0,28,07,149,-0,25,06,322,-0,17,42,086,-0*76
\c:1494204338996*69\$GPGSV,3,3,12,03,12,038,-0,12,47,307,40,23,02,072,-0,24,18,260,-0*61
\c:1494204339017*68\$GPZDA,005107.00,08,05,2017,00,00*6C
\c:1494204339018*67\$GPGGA,005107,4206.5891,N,08750.5409,W,1,06,2.98,215.92,M,-34.268,M,,*7A
\c:1494204339018*67\$GPRMC,005107,A,4206.5891,N,08750.5409,W,0.1177,184.939,080517,,*3E
\c:1494204339018*67\$GPGSA,A,3,00,00,00,00,00,00,,,,,,,5.0,3.0,4.0*30
\c:1494204339993*6D\$GPGSV,3,1,12,02,50,248,-0,131,33,220,-0,06,80,020,35,133,43,196,-0*6D
\c:1494204339994*6A\$GPGSV,3,2,12,19,60,068,-0,28,07,149,-0,25,06,322,-0,17,42,086,-0*76
\c:1494204339994*6A\$GPGSV,3,3,12,03,12,038,-0,12,47,307,40,23,02,072,-0,24,18,260,-0*61
\c:1494204340001*61\$GPZDA,005108.00,08,05,2017,00,00*63
\c:1494204340001*61\$GPGGA,005108,4206.5891,N,08750.5409,W,1,06,2.98,215.93,M,-34.268,M,,*74
\c:1494204340001*61\$GPRMC,005108,A,4206.5891,N,08750.5409,W,0.1177,184.939,080517,,*31
\c:1494204340001*61\$GPGSA,A,3,00,00,00,00,00,00,,,,,,,5.0,3.0,4.0*30
\c:1494204341001*60\$GPGSV,3,1,12,02,50,248,-0,131,33,220,-0,06,80,020,34,133,43,196,-0*6C
\c:1494204341001*60\$GPGSV,3,2,12,19,60,068,-0,28,07,149,-0,25,06,322,-0,17,42,086,-0*76
\c:1494204341001*60\$GPGSV,3,3,12,03,12,038,-0,12,47,307,38,23,02,072,-0,24,18,260,-0*6E
\c:1494204341008*69\$GPZDA,005109.00,08,05,2017,00,00*62
\c:1494204341008*69\$GPGGA,005109,4206.5891,N,08750.5409,W,1,06,2.98,215.94,M,-34.268,M,,*72
\c:1494204341008*69\$GPRMC,005109,A,4206.5891,N,08750.5409,W,0.1177,184.939,080517,,*30
\c:1494204341008*69\$GPGSA,A,3,00,00,00,00,00,00,,,,,,,5.0,3.0,4.0*30
\c:1494204341994*65\$GPGSV,3,1,12,02,50,248,-0,131,33,220,-0,06,80,020,34,133,43,196,-0*6C
\c:1494204341994*65\$GPGSV,3,2,12,19,60,068,-0,28,07,149,-0,25,06,322,-0,17,42,086,-0*76
\c:1494204341994*65\$GPGSV,3,3,12,03,12,038,-0,12,47,307,38,23,02,072,-0,24,18,260,-0*6E
\c:1494204342000*62\$GPZDA,005110.00,08,05,2017,00,00*6A
\c:1494204342000*62\$GPGGA,005110,4206.5891,N,08750.5410,W,1,06,2.98,215.94,M,-34.268,M,,*72
\c:1494204342000*62\$GPRMC,005110,A,4206.5891,N,08750.5410,W,0.1177,184.939,080517,,*30
\c:1494204342001*63\$GPGSA,A,3,00,00,00,00,00,00,,,,,,,5.0,3.0,4.0*30
\c:1494204342996*64\$GPGSV,3,1,12,02,50,248,-0,131,33,220,-0,06,80,020,-0,133,43,196,-0*76
\c:1494204342996*64\$GPGSV,3,2,12,19,60,068,-0,28,07,149,-0,25,06,322,-0,17,42,086,-0*76
\c:1494204342996*64\$GPGSV,3,3,12,03,12,038,-0,12,47,307,37,23,02,072,-0,24,18,260,-0*61
\c:1494204343003*60\$GPZDA,005111.00,08,05,2017,00,00*6B
\c:1494204343003*60\$GPGGA,005111,4206.5891,N,08750.5410,W,1,06,2.98,215.95,M,-34.268,M,,*72
\c:1494204343003*60\$GPRMC,005111,A,4206.5891,N,08750.5410,W,0.1177,184.939,080517,,*31
\c:1494204343003*60\$GPGSA,A,3,00,00,00,00,00,00,,,,,,,5.0,3.0,4.0*30
\c:1494204343994*67\$GPGSV,3,1,12,02,50,248,-0,131,33,220,-0,06,80,020,-0,133,43,196,-0*76
\c:1494204343994*67\$GPGSV,3,2,12,19,60,068,-0,28,07,149,-0,25,06,322,-0,17,42,086,-0*76
\c:1494204343994*67\$GPGSV,3,3,12,03,12,038,-0,12,47,307,-0,23,02,072,-0,24,18,260,-0*78
\c:1494204344000*64\$GPZDA,005112.00,08,05,2017,00,00*68
\c:1494204344000*64\$GPGGA,005112,4206.5891,N,08750.5411,W,1,03,,215.95,M,-34.268,M,,*68
\c:1494204344000*64\$GPRMC,005112,A,4206.5891,N,08750.5411,W,0.1177,184.939,080517,,*33
\c:1494204344000*64\$GPGSA,A,3,00,00,00,,,,,,,,,,0.0,0.0,0.0*32
\c:1494204344998*6C\$GPGSV,3,1,12,02,50,248,-0,131,33,220,-0,06,80,020,36,133,43,196,-0*6E
\c:1494204344998*6C\$GPGSV,3,2,12,19,60,068,-0,28,07,149,-0,25,06,322,-0,17,42,086,-0*76
\c:1494204344998*6C\$GPGSV,3,3,12,03,12,038,-0,12,47,307,-0,23,02,072,-0,24,18,260,-0*78
\c:1494204345005*60\$GPZDA,005113.00,08,05,2017,00,00*69
\c:1494204345005*60\$GPGGA,005113,4206.5891,N,08750.5411,W,1,03,,215.96,M,-34.268,M,,*6A
\c:1494204345005*60\$GPRMC,005113,A,4206.5891,N,08750.5411,W,0.1177,184.939,080517,,*32
\c:1494204345006*63\$GPGSA,A,3,00,00,00,,,,,,,,,,0.0,0.0,0.0*32
\c:1494204346001*67\$GPGSV,3,1,12,02,50,248,-0,131,33,220,-0,06,80,020,36,133,43,196,-0*6E
\c:1494204346001*67\$GPGSV,3,2,12,19,60,068,-0,28,07,149,-0,25,06,322,-0,17,42,086,-0*76
\c:1494204346001*67\$GPGSV,3,3,12,03,12,038,-0,12,47,307,-0,23,02,072,-0,24,18,260,-0*78
\c:1494204346009*6F\$GPZDA,005114.00,08,05,2017,00,00*6E
\c:1494204346009*6F\$GPGGA,005114,4206.5892,N,08750.5411,W,1,03,,215.96,M,-34.268,M,,*6E
\c:1494204346010*67\$GPRMC,005114,A,4206.5892,N,08750.5411,W,0.1177,184.939,080517,,*36
\c:1494204346010*67\$GPGSA,A,3,00,00,00,,,,,,,,,,0.0,0.0,0.0*32
\c:1494204346998*6E\$GPGSV,3,1,12,02,50,248,-0,131,33,220,-0,06,80,020,36,133,43,196,-0*6E
\c:1494204346998*6E\$GPGSV,3,2,12,19,60,068,-0,28,07,149,-0,25,06,322,-0,17,42,086,-0*76
\c:1494204346999*6F\$GPGSV,3,3,12,03,12,038,-0,12,47,307,-0,23,02,072,-0,24,18,260,-0*78
\c:1494204347005*62\$GPZDA,005115.00,08,05,2017,00,00*6F
\c:1494204347005*62\$GPGGA,005115,4206.5892,N,08750.5412,W,1,03,,215.96,M,-34.268,M,,*6C
\c:1494204347005*62\$GPRMC,005115,A,4206.5892,N,08750.5412,W,0.1177,184.939,080517,,*34
\c:1494204347005*62\$GPGSA,A,3,00,00,00,,,,,,,,,,0.0,0.0,0.0*32
\c:1494204347999*6E\$GPGSV,3,1,12,02,50,248,-0,131,33,220,-0,06,80,020,36,133,43,196,-0*6E
\c:1494204347999*6E\$GPGSV,3,2,12,19,60,068,-0,28,07,149,-0,25,06,322,-0,17,42,086,-0*76
\c:1494204347999*6E\$GPGSV,3,3,12,03,12,038,-0,12,47,307,-0,23,02,072,-0,24,18,260,-0*78
\c:1494204348007*6F\$GPZDA,005116.00,08,05,2017,00,00*6C
\c:1494204348008*60\$GPGGA,005116,4206.5892,N,08750.5412,W,1,03,,215.96,M,-34.268,M,,*6F
\c:1494204348008*60\$GPRMC,005116,A,4206.5892,N,08750.5412,W,0.1177,184.939,080517,,*37
\c:1494204348008*60\$GPGSA,A,3,00,00,00,,,,,,,,,,0.0,0.0,0.0*32
\c:1494204349001*68\$GPGSV,3,1,12,02,50,248,-0,131,33,220,-0,06,80,020,35,133,43,196,-0*6D
\c:1494204349002*6B\$GPGSV,3,2,12,19,60,068,-0,28,07,149,-0,25,06,322,-0,17,42,086,-0*76
\c:1494204349002*6B\$GPGSV,3,3,12,03,12,038,-0,12,47,307,-0,23,02,072,-0,24,18,260,-0*78
\c:1494204349008*61\$GPZDA,005117.00,08,05,2017,00,00*6D
\c:1494204349008*61\$GPGGA,005117,4206.5892,N,08750.5413,W,1,00,,215.97,M,-34.268,M,,*6D
\c:1494204349008*61\$GPRMC,005117,A,4206.5892,N,08750.5413,W,0.1177,184.939,080517,,*37
\c:1494204349008*61\$GPGSA,A,3,,,,,,,,,,,,,0.0,0.0,0.0*32
\c:1494204349995*6C\$GPGSV,3,1,12,02,50,248,-0,131,33,220,-0,06,80,020,36,133,43,196,-0*6E
\c:1494204349996*6F\$GPGSV,3,2,12,19,60,068,-0,28,07,149,-0,25,06,322,-0,17,42,086,41*6E
\c:1494204349996*6F\$GPGSV,3,3,12,03,12,038,-0,12,47,307,38,23,02,072,-0,24,18,260,-0*6E
\c:1494204350013*63\$GPZDA,005118.00,08,05,2017,00,00*62
\c:1494204350014*64\$GPGGA,005118,4206.5892,N,08750.5413,W,1,00,,215.97,M,-34.268,M,,*62
\c:1494204350014*64\$GPRMC,005118,A,4206.5892,N,08750.5413,W,0.1177,184.939,080517,,*38
\c:1494204350014*64\$GPGSA,A,3,,,,,,,,,,,,,0.0,0.0,0.0*32
\c:1494204350999*68\$GPGSV,3,1,12,02,50,248,-0,131,33,220,-0,06,80,020,41,133,43,196,-0*6E
\c:1494204350999*68\$GPGSV,3,2,12,19,60,068,-0,28,07,149,-0,25,06,322,-0,17,42,086,42*6D
\c:1494204350999*68\$GPGSV,3,3,12,03,12,038,-0,12,47,307,38,23,02,072,-0,24,18,260,35*75
\c:1494204351025*67\$GPZDA,005119.00,08,05,2017,00,00*63
\c:1494204351025*67\$GPGGA,005119,4206.5890,N,08750.5410,W,1,00,,215.97,M,-34.268,M,,*62
\c:1494204351025*67\$GPRMC,005119,A,4206.5890,N,08750.5410,W,0.1177,184.939,080517,,*38
\c:1494204351025*67\$GPGSA,A,3,,,,,,,,,,,,,0.0,0.0,0.0*32
\c:1494204352023*62\$GPGSV,3,1,12,02,50,248,-0,131,33,220,-0,06,80,020,41,122,00,000,-0*67
\c:1494204352023*62\$GPGSV,3,2,12,19,60,068,-0,28,07,149,-0,25,06,322,-0,17,42,086,41*6E
\c:1494204352024*65\$GPGSV,3,3,12,03,12,038,-0,12,47,307,41,23,02,072,-0,24,18,260,34*7A
\c:1494204352032*62\$GPZDA,005120.00,08,05,2017,00,00*69
\c:1494204352032*62\$GPGGA,005120,4206.5891,N,08750.5410,W,1,03,,215.97,M,-34.268,M,,*6A
\c:1494204352032*62\$GPRMC,005120,A,4206.5891,N,08750.5410,W,0.1177,184.939,080517,,*33
\c:1494204352032*62\$GPGSA,A,3,00,00,00,,,,,,,,,,0.0,0.0,0.0*32
\c:1494204353001*63\$GPGSV,3,1,12,02,50,248,30,131,33,220,-0,06,80,020,41,122,00,000,-0*79
\c:1494204353001*63\$GPGSV,3,2,12,19,60,068,-0,28,07,149,-0,25,06,322,-0,17,42,086,41*6E
\c:1494204353001*63\$GPGSV,3,3,12,03,12,038,-0,12,47,307,40,23,02,072,-0,24,18,260,34*7B
\c:1494204353011*62\$GPZDA,005121.00,08,05,2017,00,00*68
\c:1494204353012*61\$GPGGA,005121,4206.5893,N,08750.5410,W,1,03,,215.97,M,-34.268,M,,*69
\c:1494204353012*61\$GPRMC,005121,A,4206.5893,N,08750.5410,W,0.1177,184.939,080517,,*30
\c:1494204353012*61\$GPGSA,A,3,00,00,00,,,,,,,,,,0.0,0.0,0.0*32
\c:1494204353996*64\$GPGSV,3,1,12,02,50,248,30,131,33,220,-0,06,80,020,40,122,00,000,-0*78
\c:1494204353996*64\$GPGSV,3,2,12,19,60,068,-0,28,07,149,-0,25,06,322,-0,17,42,086,40*6F
\c:1494204353996*64\$GPGSV,3,3,12,03,12,038,-0,12,47,307,40,23,02,072,-0,24,18,260,-0*61
\c:1494204354003*66\$GPZDA,005122.00,08,05,2017,00,00*6B
\c:1494204354003*66\$GPGGA,005122,4206.5894,N,08750.5410,W,1,03,,215.97,M,-34.268,M,,*6D
\c:1494204354004*61\$GPRMC,005122,A,4206.5894,N,08750.5410,W,0.1177,184.939,080517,,*34
\c:1494204354004*61\$GPGSA,A,3,00,00,00,,,,,,,,,,0.0,0.0,0.0*32
\c:1494204354999*6C\$GPGSV,3,1,12,02,50,248,30,131,33,220,-0,06,80,020,39,122,00,000,-0*76
\c:1494204354999*6C\$GPGSV,3,2,12,19,60,068,-0,28,07,149,-0,25,06,322,-0,17,42,086,-0*76
\c:1494204354999*6C\$GPGSV,3,3,12,03,12,038,-0,12,47,307,40,23,02,072,-0,24,18,260,-0*61
\c:1494204355006*62\$GPZDA,005123.00,08,05,2017,00,00*6A
\c:1494204355006*62\$GPGGA,005123,4206.5895,N,08750.5410,W,1,03,,215.97,M,-34.268,M,,*6D
\c:1494204355006*62\$GPRMC,005123,A,4206.5895,N,08750.5410,W,0.1177,184.939,080517,,*34
\c:1494204355006*62\$GPGSA,A,3,00,00,00,,,,,,,,,,0.0,0.0,0.0*32
\c:1494204355995*61\$GPGSV,3,1,12,02,50,248,30,131,33,220,-0,06,80,020,38,122,00,000,-0*77
\c:1494204355995*61\$GPGSV,3,2,12,19,60,068,-0,28,07,149,-0,25,06,322,-0,17,42,086,-0*76
\c:1494204355995*61\$GPGSV,3,3,12,03,12,038,-0,12,47,307,39,23,02,072,-0,24,18,260,-0*6F
\c:1494204356003*64\$GPZDA,005124.00,08,05,2017,00,00*6D
\c:1494204356004*63\$GPGGA,005124,4206.5897,N,08750.5409,W,1,03,,215.97,M,-34.268,M,,*60
\c:1494204356004*63\$GPRMC,005124,A,4206.5897,N,08750.5409,W,0.1177,184.939,080517,,*39
\c:1494204356004*63\$GPGSA,A,3,00,00,00,,,,,,,,,,0.0,0.0,0.0*32
