\c:1507783333116*63\$GPXTE,V,V,,R,N,N*0C
\c:1507783333244*67\$GPZDA,,,,,00,*48
\c:1507783333420*63\$IIDBT,020.70,f,006.31,M,003.41,F*26
\c:1507783333479*6F\$GPGSV,3,1,12,10,75,339,48,18,67,099,39,32,49,261,46,24,43,061,48*7D
\c:1507783333479*6F\$GPGSV,3,2,12,14,34,251,48,08,09,290,42,27,08,257,44,138,38,209,43*4F
\c:1507783333479*6F\$GPGSV,3,3,12,21,28,176,35,15,10,066,43,12,07,104,40,25,01,138,-0*63
\c:1507783333509*69\$GPZDA,225217.00,12,10,2017,00,00*61
\c:1507783333509*69\$GPGGA,225217,4157.6871,N,08737.5995,W,1,07,2.08,167.17,M,-34.238,M,,*7D
\c:1507783333510*61\$GPRMC,225217,A,4157.6871,N,08737.5995,W,6.0383,6.559,121017,,*3F
\c:1507783333510*61\$GPGSA,A,3,00,00,00,00,00,00,00,,,,,,2.8,2.1,1.8*32
\c:1507783333516*67\$GPGLL,,,,,,V,N*64
\c:1507783333676*62\$GPGSV,,,,,,,,,,,,,,,,,,,*79
\c:1507783333755*62\$IIHDM,013,M*3E
\c:1507783333884*61\$IIHDT,009,T*35
\c:1507783334060*64\$IIMWD,153.69,T,157.69,M,09.91,N,05.10,M*45
\c:1507783334124*65\$IIVDR,,,,,,N*0E
\c:1507783334316*66\$IIVHW,009,T,013,M,05.91,N,10.94,K*5F
\c:1507783334395*6D\$IIVPW,-5.26,N,,*2D
\c:1507783334478*69\$GPGSV,3,1,12,10,75,339,49,18,67,099,39,32,49,261,47,24,43,061,46*73
\c:1507783334478*69\$GPGSV,3,2,12,14,34,251,48,08,09,290,41,27,08,257,44,138,38,209,44*4B
\c:1507783334478*69\$GPGSV,3,3,12,21,28,176,36,15,10,066,42,12,07,104,39,25,01,138,-0*6F
\c:1507783334510*66\$GPZDA,225218.00,12,10,2017,00,00*6E
\c:1507783334510*66\$GPGGA,225218,4157.6887,N,08737.5992,W,1,07,2.08,166.92,M,-34.238,M,,*70
\c:1507783334510*66\$GPRMC,225218,A,4157.6887,N,08737.5992,W,5.6906,8.793,121017,,*36
\c:1507783334510*66\$GPGSA,A,3,00,00,00,00,00,00,00,,,,,,2.8,2.1,1.8*32
\c:1507783334540*63\$IIVTG,,,,,,N,,,N*69
\c:1507783334700*65\$IIMWV,131,R,06.22,N,A*26
\c:1507783334827*6F\$IIVWT,155,R,10.86,N,05.59,M,,*33
\c:1507783334908*63\$IIHDT,012,T*3F
\c:1507783335020*61\$GPWCV,,N,,N*55
\c:1507783335164*60\$GPXTE,V,V,,R,N,N*0C
\c:1507783335291*69\$GPZDA,,,,,00,*48
\c:1507783335467*66\$IIDBT,020.89,f,006.37,M,003.44,F*23
\c:1507783335479*69\$GPGSV,3,1,12,10,75,339,48,18,67,099,39,32,49,261,46,24,43,061,47*72
\c:1507783335479*69\$GPGSV,3,2,12,14,34,251,49,08,09,290,41,27,08,257,45,138,38,209,43*4C
\c:1507783335479*69\$GPGSV,3,3,12,21,28,176,35,15,10,066,41,12,07,104,38,25,01,138,-0*6E
\c:1507783335502*64\$GPZDA,225219.00,12,10,2017,00,00*6F
\c:1507783335502*64\$GPGGA,225219,4157.6902,N,08737.5992,W,1,07,2.08,167.08,M,-34.238,M,,*7F
\c:1507783335502*64\$GPRMC,225219,A,4157.6902,N,08737.5992,W,5.6058,1.024,121017,,*3B
\c:1507783335502*64\$GPGSA,A,3,00,00,00,00,00,00,00,,,,,,2.8,2.1,1.8*32
\c:1507783335563*63\$GPGLL,,,,,,V,N*64
\c:1507783335723*65\$GPGSV,,,,,,,,,,,,,,,,,,,*79
\c:1507783335804*6F\$IIHDM,009,M*35
\c:1507783335931*68\$IIHDT,005,T*39
\c:1507783336107*66\$IIMWD,129.73,T,133.73,M,07.77,N,04.00,M*4C
\c:1507783336172*64\$IIVDR,,,,,,N*0E
\c:1507783336363*66\$IIVHW,005,T,009,M,05.65,N,10.46,K*5C
\c:1507783336444*64\$IIVPW,-5.25,N,,*2E
\c:1507783336479*6A\$GPGSV,3,1,12,10,75,339,47,18,67,099,39,32,49,261,47,24,43,061,48*73
\c:1507783336479*6A\$GPGSV,3,2,12,14,34,251,49,08,09,290,41,27,08,257,45,138,38,209,43*4C
\c:1507783336479*6A\$GPGSV,3,3,12,21,28,176,35,15,10,066,41,12,07,104,38,25,01,138,-0*6E
\c:1507783336506*63\$GPZDA,225220.00,12,10,2017,00,00*65
\c:1507783336506*63\$GPGGA,225220,4157.6918,N,08737.5989,W,1,07,2.08,166.95,M,-34.238,M,,*71
\c:1507783336506*63\$GPRMC,225220,A,4157.6918,N,08737.5989,W,5.8206,6.282,121017,,*3E
\c:1507783336506*63\$GPGSA,A,3,00,00,00,00,00,00,00,,,,,,2.8,2.1,1.8*32
\c:1507783336587*6A\$IIVTG,,,,,,N,,,N*69
\c:1507783336747*64\$IIMWV,164,T,11.87,N,A*29
\c:1507783336876*69\$IIVWT,164,R,11.87,N,06.11,M,,*3E
\c:1507783336955*69\$IIHDT,008,T*34
\c:1507783337084*6D\$GPWCV,,N,,N*55
\c:1507783337211*63\$GPXTE,V,V,,R,N,N*0C
\c:1507783337339*68\$GPZDA,,,,,00,*48
\c:1507783337479*6B\$GPGSV,3,1,12,10,75,339,47,18,67,099,39,32,49,261,47,24,43,061,49*72
\c:1507783337479*6B\$GPGSV,3,2,12,14,34,251,49,08,09,290,42,27,08,257,45,138,38,209,42*4E
\c:1507783337479*6B\$GPGSV,3,3,12,21,28,176,34,15,10,066,40,12,07,104,-0,25,01,138,-0*78
\c:1507783337508*6C\$GPZDA,225221.00,12,10,2017,00,00*64
\c:1507783337508*6C\$GPGGA,225221,4157.6935,N,08737.5989,W,1,07,2.08,167.31,M,-34.238,M,,*70
\c:1507783337508*6C\$GPRMC,225221,A,4157.6935,N,08737.5989,W,6.0318,1.499,121017,,*3E
\c:1507783337508*6C\$GPGSA,A,3,00,00,00,00,00,00,00,,,,,,2.8,2.1,1.8*32
\c:1507783337515*60\$IIDBT,020.57,f,006.27,M,003.38,F*2A
\c:1507783337612*64\$GPGLL,,,,,,V,N*64
\c:1507783337772*63\$GPGSV,,,,,,,,,,,,,,,,,,,*79
\c:1507783337851*6D\$IIHDM,013,M*3E
\c:1507783337979*66\$IIHDT,009,T*35
\c:1507783338155*6F\$IIMWD,147.11,T,151.11,M,08.55,N,04.40,M*4B
\c:1507783338219*64\$IIVDR,,,,,,N*0E
\c:1507783338411*6A\$IIVHW,009,T,013,M,05.99,N,11.09,K*52
\c:1507783338476*6B\$GPGSV,3,1,12,10,75,339,46,18,67,099,40,32,49,261,47,24,43,061,49*7D
\c:1507783338476*6B\$GPGSV,3,2,12,14,34,251,49,08,09,290,42,27,08,257,46,138,38,209,42*4D
\c:1507783338476*6B\$GPGSV,3,3,12,21,28,176,33,15,10,066,41,12,07,104,-0,25,01,138,-0*7E
\c:1507783338491*62\$IIVPW,-5.08,N,,*21
\c:1507783338504*6F\$GPZDA,225222.00,12,10,2017,00,00*67
\c:1507783338504*6F\$GPGGA,225222,4157.6952,N,08737.5988,W,1,07,2.08,167.21,M,-34.238,M,,*72
\c:1507783338504*6F\$GPRMC,225222,A,4157.6952,N,08737.5988,W,6.2042,1.562,121017,,*36
\c:1507783338504*6F\$GPGSA,A,3,00,00,00,00,00,00,00,,,,,,2.8,2.1,1.8*32
\c:1507783338635*6E\$IIVTG,,,,,,N,,,N*69
\c:1507783338795*65\$IIMWV,121,R,05.83,N,A*2F
\c:1507783338923*66\$IIVWT,151,R,10.10,N,05.20,M,,*36
\c:1507783339002*6D\$IIHDT,008,T*34
\c:1507783339131*6C\$GPWCV,,N,,N*55
\c:1507783339258*60\$GPXTE,V,V,,R,N,N*0C
\c:1507783339387*63\$GPZDA,,,,,00,*48
\c:1507783339479*65\$GPGSV,3,1,12,10,75,339,47,18,67,099,40,32,49,261,47,24,43,061,49*7C
\c:1507783339479*65\$GPGSV,3,2,12,14,34,251,49,08,09,290,42,27,08,257,46,138,38,209,42*4D
\c:1507783339479*65\$GPGSV,3,3,12,21,28,176,33,15,10,066,42,12,07,104,-0,25,01,138,-0*7D
\c:1507783339504*6E\$GPZDA,225223.00,12,10,2017,00,00*66
\c:1507783339504*6E\$GPGGA,225223,4157.6969,N,08737.5987,W,1,07,2.08,167.27,M,-34.238,M,,*72
\c:1507783339504*6E\$GPRMC,225223,A,4157.6969,N,08737.5987,W,6.3065,4.278,121017,,*3D
\c:1507783339504*6E\$GPGSA,A,3,00,00,00,00,00,00,00,,,,,,2.8,2.1,1.8*32
\c:1507783339563*6F\$IIDBT,020.80,f,006.34,M,003.42,F*2F
\c:1507783339659*65\$GPGLL,,,,,,V,N*64
\c:1507783339819*6F\$GPGSV,,,,,,,,,,,,,,,,,,,*79
\c:1507783339898*66\$IIHDM,015,M*38
\c:1507783340027*64\$IIHDT,011,T*3C
\c:1507783340203*60\$IIMWD,161.54,T,165.54,M,10.59,N,05.45,M*49
\c:1507783340266*63\$IIVDR,,,,,,N*0E
\c:1507783340459*69\$IIVHW,012,T,016,M,05.81,N,10.76,K*5D
\c:1507783340478*6A\$GPGSV,3,1,12,10,75,339,47,18,67,099,41,32,49,261,47,24,43,061,49*7D
\c:1507783340478*6A\$GPGSV,3,2,12,14,34,251,48,08,09,290,42,27,08,257,46,138,38,209,41*4F
\c:1507783340478*6A\$GPGSV,3,3,12,21,28,176,35,15,10,066,41,12,07,104,-0,25,01,138,-0*78
\c:1507783340504*60\$GPZDA,225224.00,12,10,2017,00,00*61
\c:1507783340504*60\$GPGGA,225224,4157.6985,N,08737.5985,W,1,07,2.08,167.42,M,-34.238,M,,*76
\c:1507783340504*60\$GPRMC,225224,A,4157.6985,N,08737.5985,W,5.9937,4.234,121017,,*35
\c:1507783340504*60\$GPGSA,A,3,00,00,00,00,00,00,00,,,,,,2.8,2.1,1.8*32
\c:1507783340538*6F\$IIVPW,-4.86,N,,*26
\c:1507783340683*6C\$IIVTG,,,,,,N,,,N*69
\c:1507783340843*6E\$IIMWV,137,T,09.34,N,A*2E
\c:1507783340970*6F\$IIVWT,137,R,09.34,N,04.81,M,,*32
\c:1507783341051*64\$IIHDT,010,T*3D
\c:1507783341178*6E\$GPWCV,,N,,N*55
\c:1507783341307*64\$GPXTE,V,V,,R,N,N*0C
\c:1507783341434*63\$GPZDA,,,,,00,*48
\c:1507783341479*6A\$GPGSV,3,1,12,10,75,339,47,18,67,099,41,32,49,261,46,24,43,061,48*7D
\c:1507783341479*6A\$GPGSV,3,2,12,14,34,251,49,08,09,290,41,27,08,257,46,138,38,209,41*4D
\c:1507783341479*6A\$GPGSV,3,3,12,21,28,176,33,15,10,066,41,12,07,104,-0,25,01,138,-0*7E
\c:1507783341504*61\$GPZDA,225225.00,12,10,2017,00,00*60
\c:1507783341504*61\$GPGGA,225225,4157.7000,N,08737.5982,W,1,07,2.08,167.40,M,-34.238,M,,*77
\c:1507783341504*61\$GPRMC,225225,A,4157.7000,N,08737.5982,W,5.7125,8.441,121017,,*3B
\c:1507783341504*61\$GPGSA,A,3,00,00,00,00,00,00,00,,,,,,2.8,2.1,1.8*32
\c:1507783341610*67\$IIDBT,020.80,f,006.34,M,003.42,F*2F
\c:1507783341706*61\$GPGLL,,,,,,V,N*64
\c:1507783341882*62\$GPGSV,,,,,,,,,,,,,,,,,,,*79
\c:1507783341947*6A\$IIHDM,013,M*3E
\c:1507783342074*60\$IIHDT,009,T*35
\c:1507783342250*64\$IIMWD,151.43,T,155.42,M,11.23,N,05.78,M*4A
\c:1507783342314*65\$IIVDR,,,,,,N*0E
\c:1507783342479*69\$GPGSV,3,1,12,10,75,339,48,18,67,099,40,32,49,261,46,24,43,061,48*73
\c:1507783342479*69\$GPGSV,3,2,12,14,34,251,48,08,09,290,42,27,08,257,45,138,38,209,42*4F
\c:1507783342479*69\$GPGSV,3,3,12,21,28,176,35,15,10,066,42,12,07,104,-0,25,01,138,-0*7B
\c:1507783342506*60\$IIVHW,007,T,011,M,05.90,N,10.92,K*54
\c:1507783342508*6E\$GPZDA,225226.00,12,10,2017,00,00*63
\c:1507783342508*6E\$GPGGA,225226,4157.7017,N,08737.5980,W,1,07,2.08,167.58,M,-34.238,M,,*79
\c:1507783342508*6E\$GPRMC,225226,A,4157.7017,N,08737.5980,W,6.0432,4.351,121017,,*31
\c:1507783342508*6E\$GPGSA,A,3,00,00,00,00,00,00,00,,,,,,2.8,2.1,1.8*32
\c:1507783342587*69\$IIVPW,-5.45,N,,*28
\c:1507783342747*67\$IIVTG,,,,,,N,,,N*69
\c:1507783342890*62\$IIMWV,128,R,07.19,N,A*27
\c:1507783343017*64\$IIVWT,151,R,11.56,N,05.95,M,,*3B
\c:1507783343098*63\$IIHDT,008,T*34
\c:1507783343225*67\$GPWCV,,N,,N*55
\c:1507783343354*60\$GPXTE,V,V,,R,N,N*0C
\c:1507783343479*68\$GPGSV,3,1,12,10,75,339,48,18,67,100,40,32,49,261,46,24,43,061,48*72
\c:1507783343479*68\$GPGSV,3,2,12,14,34,251,48,08,09,290,42,27,08,257,44,138,38,209,43*4F
\c:1507783343479*68\$GPGSV,3,3,12,21,28,176,35,15,10,066,42,12,07,104,-0,25,01,138,-0*7B
\c:1507783343482*6C\$GPZDA,,,,,00,*48
\c:1507783343520*65\$GPZDA,225227.00,12,10,2017,00,00*62
\c:1507783343520*65\$GPGGA,225227,4157.7033,N,08737.5981,W,1,07,2.08,167.77,M,-34.238,M,,*72
\c:1507783343520*65\$GPRMC,225227,A,4157.7033,N,08737.5981,W,6.1584,357.734,121017,,*38
\c:1507783343520*65\$GPGSA,A,3,00,00,00,00,00,00,00,,,,,,2.8,2.1,1.8*32
\c:1507783343657*66\$IIDBT,020.34,f,006.20,M,003.35,F*25
\c:1507783343754*64\$GPGLL,,,,,,V,N*64
\c:1507783343930*68\$GPGSV,,,,,,,,,,,,,,,,,,,*79
\c:1507783343994*66\$IIHDM,008,M*34
\c:1507783344122*64\$IIHDT,004,T*38
\c:1507783344297*69\$IIMWD,168.95,T,172.95,M,11.70,N,06.02,M*4C
\c:1507783344362*62\$IIVDR,,,,,,N*0E
\c:1507783344476*60\$GPGSV,3,1,12,10,75,339,47,18,67,100,40,32,49,261,47,24,43,061,47*73
\c:1507783344476*60\$GPGSV,3,2,12,14,34,251,48,08,09,290,40,27,08,257,45,138,38,209,43*4C
\c:1507783344476*60\$GPGSV,3,3,12,21,28,176,38,15,10,066,41,12,07,104,-0,25,01,138,-0*75
\c:1507783344505*65\$GPZDA,225228.00,12,10,2017,00,00*6D
\c:1507783344505*65\$GPGGA,225228,4157.7049,N,08737.5982,W,1,07,2.08,168.02,M,-34.238,M,,*7E
\c:1507783344505*65\$GPRMC,225228,A,4157.7049,N,08737.5982,W,5.8266,358.079,121017,,*39
\c:1507783344505*65\$GPGSA,A,3,00,00,00,00,00,00,00,,,,,,2.8,2.1,1.8*32
\c:1507783344553*66\$IIVHW,003,T,007,M,05.81,N,10.76,K*5D
\c:1507783344634*64\$IIVPW,-5.61,N,,*2E
\c:1507783344794*6F\$IIVTG,,,,,,N,,,N*69
\c:1507783344937*68\$IIMWV,154,T,11.00,N,A*25
\c:1507783345066*64\$IIVWT,154,R,11.00,N,05.66,M,,*31
\c:1507783345145*64\$IIHDT,004,T*38
\c:1507783345274*65\$GPWCV,,N,,N*55
\c:1507783345401*61\$GPXTE,V,V,,R,N,N*0C
\c:1507783345478*6F\$GPGSV,3,1,12,10,75,339,46,18,67,100,40,32,49,261,47,24,43,061,46*73
\c:1507783345478*6F\$GPGSV,3,2,12,14,34,251,48,08,09,290,41,27,08,257,44,138,38,209,-0*56
\c:1507783345478*6F\$GPGSV,3,3,12,21,28,176,38,15,10,066,41,12,07,104,-0,25,01,138,-0*75
\c:1507783345509*68\$GPZDA,225229.00,12,10,2017,00,00*6C
\c:1507783345509*68\$GPGGA,225229,4157.7064,N,08737.5983,W,1,07,2.08,168.27,M,-34.238,M,,*76
\c:1507783345509*68\$GPRMC,225229,A,4157.7064,N,08737.5983,W,5.8266,358.079,121017,,*36
\c:1507783345509*68\$GPGSA,A,3,00,00,00,00,00,00,00,,,,,,2.8,2.1,1.8*32
\c:1507783345546*63\$GPZDA,,,,,00,*48
\c:1507783345706*65\$IIDBT,020.34,f,006.20,M,003.35,F*25
\c:1507783345802*6E\$GPGLL,,,,,,V,N*64
\c:1507783345977*6D\$GPGSV,,,,,,,,,,,,,,,,,,,*79
\c:1507783346041*62\$IIHDM,005,M*39
\c:1507783346170*61\$IIHDT,001,T*3D
\c:1507783346346*66\$IIMWD,178.31,T,182.31,M,11.25,N,05.79,M*4D
\c:1507783346409*6A\$IIVDR,,,,,,N*0E
\c:1507783346476*62\$GPGSV,3,1,12,10,75,339,45,18,67,100,39,32,49,261,47,24,43,061,45*7D
\c:1507783346476*62\$GPGSV,3,2,12,14,34,251,48,08,09,290,40,27,08,257,44,138,38,209,47*49
\c:1507783346476*62\$GPGSV,3,3,12,21,28,176,37,15,10,066,41,12,07,104,-0,25,01,138,-0*7A
\c:1507783346504*66\$GPZDA,225230.00,12,10,2017,00,00*64
\c:1507783346504*66\$GPGGA,225230,4157.7079,N,08737.5985,W,1,07,2.08,168.42,M,-34.238,M,,*77
\c:1507783346504*66\$GPRMC,225230,A,4157.7079,N,08737.5985,W,5.6200,351.624,121017,,*3D
\c:1507783346504*66\$GPGSA,A,3,00,00,00,00,00,00,00,,,,,,2.8,2.1,1.8*32
\c:1507783346602*63\$IIVHW,359,T,003,M,05.71,N,10.57,K*59
\c:1507783346681*68\$IIVPW,-5.49,N,,*24
\c:1507783346841*6A\$IIVTG,,,,,,N,,,N*69
\c:1507783346985*63\$IIMWV,118,R,05.83,N,A*25
\c:1507783347113*65\$IIVWT,151,R,10.51,N,05.41,M,,*34
\c:1507783347194*6A\$IIHDT,354,T*3E
\c:1507783347321*66\$GPWCV,,N,,N*55
\c:1507783347450*67\$GPXTE,V,V,,R,N,N*0C
\c:1507783347480*6A\$GPGSV,3,1,12,10,75,339,46,18,67,100,39,32,49,261,48,24,43,061,44*70
\c:1507783347480*6A\$GPGSV,3,2,12,14,34,251,48,08,09,290,41,27,08,257,44,138,38,209,47*48
\c:1507783347480*6A\$GPGSV,3,3,12,21,28,176,36,15,10,066,42,12,07,104,-0,25,01,138,-0*78
\c:1507783347518*6A\$GPZDA,225231.00,12,10,2017,00,00*65
\c:1507783347518*6A\$GPGGA,225231,4157.7094,N,08737.5989,W,1,07,2.08,168.39,M,-34.238,M,,*75
\c:1507783347518*6A\$GPRMC,225231,A,4157.7094,N,08737.5989,W,5.8398,350.182,121017,,*37
\c:1507783347518*6A\$GPGSA,A,3,00,00,00,00,00,00,00,,,,,,2.8,2.1,1.8*32
\c:1507783347593*69\$GPZDA,,,,,00,*48
\c:1507783347753*67\$IIDBT,020.14,f,006.14,M,003.31,F*24
\c:1507783347849*63\$GPGLL,,,,,,V,N*64
\c:1507783348025*6E\$GPGSV,,,,,,,,,,,,,,,,,,,*79
\c:1507783348090*60\$IIHDM,350,M*3A
\c:1507783348217*6D\$IIHDT,346,T*3D
\c:1507783348393*60\$IIMWD,163.57,T,167.57,M,10.34,N,05.32,M*42
\c:1507783348457*6F\$IIVDR,,,,,,N*0E
\c:1507783348477*6D\$GPGSV,3,1,12,10,75,339,46,18,67,100,38,32,49,261,48,24,43,061,43*76
\c:1507783348477*6D\$GPGSV,3,2,12,14,34,251,49,08,09,290,42,27,08,257,44,138,38,209,47*4A
\c:1507783348477*6D\$GPGSV,3,3,12,21,28,176,35,15,10,066,43,12,07,104,-0,25,01,138,-0*7A
\c:1507783348509*65\$GPZDA,225232.00,12,10,2017,00,00*66
\c:1507783348509*65\$GPGGA,225232,4157.7107,N,08737.5997,W,1,07,2.08,168.81,M,-34.238,M,,*71
\c:1507783348509*65\$GPRMC,225232,A,4157.7107,N,08737.5997,W,5.6006,337.775,121017,,*35
\c:1507783348509*65\$GPGSA,A,3,00,00,00,00,00,00,00,,,,,,2.8,2.1,1.8*32
\c:1507783348649*62\$IIVHW,345,T,349,M,06.08,N,11.26,K*53
\c:1507783348730*6D\$IIVPW,-5.02,N,,*2B
\c:1507783348888*61\$IIVTG,,,,,,N,,,N*69
\c:1507783349033*68\$IIMWV,208,T,09.58,N,A*2B
\c:1507783349160*6F\$IIVWT,152,L,09.58,N,04.93,M,,*26
\c:1507783349241*6F\$IIHDT,344,T*3F
\c:1507783349368*65\$GPWCV,,N,,N*55
\c:1507783349480*64\$GPGSV,3,1,12,10,75,339,45,18,67,100,37,32,49,261,49,24,43,061,43*7B
\c:1507783349480*64\$GPGSV,3,2,12,14,34,251,49,08,09,290,43,27,08,257,43,138,38,209,48*43
\c:1507783349480*64\$GPGSV,3,3,12,21,28,176,38,15,10,066,41,12,07,104,-0,25,01,138,-0*75
\c:1507783349497*62\$GPXTE,V,V,,R,N,N*0C
\c:1507783349513*6F\$GPZDA,225233.00,12,10,2017,00,00*67
\c:1507783349513*6F\$GPGGA,225233,4157.7120,N,08737.6010,W,1,07,2.08,169.09,M,-34.238,M,,*71
\c:1507783349513*6F\$GPRMC,225233,A,4157.7120,N,08737.6010,W,5.8576,327.254,121017,,*3F
\c:1507783349513*6F\$GPGSA,A,3,00,00,00,00,00,00,00,,,,,,2.8,2.1,1.8*32
\c:1507783349640*6A\$GPZDA,,,,,00,*48
\c:1507783349800*60\$IIDBT,020.57,f,006.27,M,003.38,F*2A
\c:1507783349896*6F\$GPGLL,,,,,,V,N*64
\c:1507783350073*64\$GPGSV,,,,,,,,,,,,,,,,,,,*79
\c:1507783350137*65\$IIHDM,343,M*38
\c:1507783350264*60\$IIHDT,339,T*35
\c:1507783350440*60\$IIMWD,178.71,T,182.71,M,08.02,N,04.13,M*4D
\c:1507783350477*64\$GPGSV,3,1,12,10,75,339,44,18,67,100,38,32,49,261,49,24,43,061,44*72
\c:1507783350477*64\$GPGSV,3,2,12,14,34,251,50,08,09,290,43,27,08,257,43,138,38,209,49*4A
\c:1507783350477*64\$GPGSV,3,3,12,21,28,176,40,15,10,066,41,12,07,104,32,25,01,138,-0*66
\c:1507783350505*60\$GPZDA,225234.00,12,10,2017,00,00*60
\c:1507783350505*60\$GPGGA,225234,4157.7133,N,08737.6022,W,1,07,2.08,169.40,M,-34.238,M,,*78
\c:1507783350505*60\$GPRMC,225234,A,4157.7133,N,08737.6022,W,5.6838,329.575,121017,,*38
\c:1507783350505*60\$GPGSA,A,3,00,00,00,00,00,00,00,,,,,,2.8,2.1,1.8*32
\c:1507783350505*60\$IIVDR,,,,,,N*0E
\c:1507783350696*69\$IIVHW,336,T,340,M,05.93,N,10.98,K*5B
\c:1507783350792*6C\$IIVPW,-5.26,N,,*2D
\c:1507783350937*6D\$IIVTG,,,,,,N,,,N*69
\c:1507783351080*69\$IIMWV,180,R,03.11,N,A*29
\c:1507783351209*6A\$IIVWT,180,L,08.37,N,04.31,M,,*29
\c:1507783351288*63\$IIHDT,334,T*38
\c:1507783351417*63\$GPWCV,,N,,N*55
\c:1507783351477*65\$GPGSV,3,1,12,10,75,339,45,18,67,100,37,32,49,261,49,24,43,061,43*7B
\c:1507783351477*65\$GPGSV,3,2,12,14,34,251,50,08,09,290,43,27,08,257,44,138,38,209,47*43
\c:1507783351477*65\$GPGSV,3,3,12,21,28,176,39,15,10,066,43,12,07,104,32,25,01,138,-0*6A
\c:1507783351504*60\$GPZDA,225235.00,12,10,2017,00,00*61
\c:1507783351504*60\$GPGGA,225235,4157.7145,N,08737.6032,W,1,07,2.08,169.53,M,-34.238,M,,*7B
\c:1507783351504*60\$GPRMC,225235,A,4157.7145,N,08737.6032,W,5.6374,330.138,121017,,*3F
\c:1507783351504*60\$GPGSA,A,3,00,00,00,00,00,00,00,,,,,,2.8,2.1,1.8*32
\c:1507783351544*64\$GPXTE,V,V,,R,N,N*0C
\c:1507783351689*66\$GPZDA,,,,,00,*48
\c:1507783351849*64\$IIDBT,020.27,f,006.18,M,003.34,F*2D
\c:1507783351945*69\$GPGLL,,,,,,V,N*64
\c:1507783352120*61\$GPGSV,,,,,,,,,,,,,,,,,,,*79
\c:1507783352184*6F\$IIHDM,343,M*38
\c:1507783352313*63\$IIHDT,339,T*35
\c:1507783352480*6E\$GPGSV,3,1,12,10,75,339,45,18,67,100,37,32,49,261,48,24,43,061,42*7B
\c:1507783352480*6E\$GPGSV,3,2,12,14,34,251,50,08,09,290,42,27,08,257,43,138,38,209,46*44
\c:1507783352480*6E\$GPGSV,3,3,12,21,28,176,39,15,10,066,42,12,07,104,-0,25,01,138,-0*77
\c:1507783352488*66\$IIMWD,156.20,T,160.20,M,08.49,N,04.37,M*44
\c:1507783352509*6E\$GPZDA,225236.00,12,10,2017,00,00*62
\c:1507783352509*6E\$GPGGA,225236,4157.7158,N,08737.6042,W,1,07,2.08,169.56,M,-34.238,M,,*76
\c:1507783352509*6E\$GPRMC,225236,A,4157.7158,N,08737.6042,W,5.7477,333.869,121017,,*3C
\c:1507783352509*6E\$GPGSA,A,3,00,00,00,00,00,00,00,,,,,,2.8,2.1,1.8*32
\c:1507783352552*60\$IIVDR,,,,,,N*0E
\c:1507783352745*64\$IIVHW,341,T,345,M,05.28,N,09.77,K*57
\c:1507783352840*6E\$IIVPW,-5.29,N,,*22
\c:1507783352984*67\$IIVTG,,,,,,N,,,N*69
\c:1507783353128*68\$IIMWV,187,T,08.72,N,A*26
\c:1507783353256*62\$IIVWT,173,L,08.72,N,04.49,M,,*2B
\c:1507783353335*66\$IIHDT,342,T*39
\c:1507783353464*65\$GPWCV,,N,,N*55
\c:1507783353477*67\$GPGSV,3,1,12,10,75,339,46,18,67,100,37,32,49,261,48,24,43,061,43*79
\c:1507783353477*67\$GPGSV,3,2,12,14,34,251,50,08,09,290,42,27,08,257,43,138,38,209,46*44
\c:1507783353477*67\$GPGSV,3,3,12,21,28,176,38,15,10,066,40,12,07,104,-0,25,01,138,-0*74
\c:1507783353507*61\$GPZDA,225237.00,12,10,2017,00,00*63
\c:1507783353507*61\$GPGGA,225237,4157.7171,N,08737.6050,W,1,07,2.08,169.76,M,-34.238,M,,*7D
\c:1507783353507*61\$GPRMC,225237,A,4157.7171,N,08737.6050,W,5.4432,337.224,121017,,*30
\c:1507783353507*61\$GPGSA,A,3,00,00,00,00,00,00,00,,,,,,2.8,2.1,1.8*32
\c:1507783353592*6D\$GPXTE,V,V,,R,N,N*0C
\c:1507783353736*61\$GPZDA,,,,,00,*48
\c:1507783353896*64\$IIDBT,020.37,f,006.21,M,003.35,F*27
\c:1507783353992*61\$GPGLL,,,,,,V,N*64
\c:1507783354168*6B\$GPGSV,,,,,,,,,,,,,,,,,,,*79
\c:1507783354231*64\$IIHDM,355,M*3F
\c:1507783354360*61\$IIHDT,351,T*3B
\c:1507783354477*60\$GPGSV,3,1,12,10,75,339,45,18,67,100,37,32,49,261,48,24,43,061,45*7C
\c:1507783354477*60\$GPGSV,3,2,12,14,34,251,49,08,09,290,42,27,08,257,44,138,38,209,45*48
\c:1507783354477*60\$GPGSV,3,3,12,21,27,176,37,15,10,066,40,12,07,104,-0,25,01,138,-0*74
\c:1507783354506*67\$GPZDA,225238.00,12,10,2017,00,00*6C
\c:1507783354506*67\$GPGGA,225238,4157.7186,N,08737.6055,W,1,07,2.08,169.56,M,-34.238,M,,*7D
\c:1507783354506*67\$GPRMC,225238,A,4157.7186,N,08737.6055,W,5.7332,346.992,121017,,*36
\c:1507783354506*67\$GPGSA,A,3,00,00,00,00,00,00,00,,,,,,2.8,2.1,1.8*32
\c:1507783354536*64\$IIMWD,140.99,T,144.99,M,06.99,N,03.60,M*43
\c:1507783354615*66\$IIVDR,,,,,,N*0E
\c:1507783354792*68\$IIVHW,356,T,360,M,05.04,N,09.33,K*58
\c:1507783354888*6C\$IIVPW,-4.25,N,,*2F
\c:1507783355031*67\$IIVTG,,,,,,N,,,N*69
\c:1507783355176*65\$IIMWV,147,R,04.47,N,A*26
\c:1507783355303*65\$IIVWT,165,R,09.34,N,04.81,M,,*35
\c:1507783355384*6A\$IIHDT,359,T*33
\c:1507783355480*69\$GPGSV,3,1,12,10,75,339,45,18,67,100,39,32,49,261,47,24,43,061,47*7F
\c:1507783355480*69\$GPGSV,3,2,12,14,34,251,49,08,09,290,42,27,08,257,46,138,38,209,45*4A
\c:1507783355480*69\$GPGSV,3,3,12,21,27,176,38,15,10,066,39,12,07,104,33,25,01,138,-0*68
\c:1507783355511*60\$GPWCV,,N,,N*55
\c:1507783355519*68\$GPZDA,225239.00,12,10,2017,00,00*6D
\c:1507783355519*68\$GPGGA,225239,4157.7202,N,08737.6058,W,1,07,2.08,170.05,M,-34.238,M,,*70
\c:1507783355519*68\$GPRMC,225239,A,4157.7202,N,08737.6058,W,5.7875,354.438,121017,,*33
\c:1507783355519*68\$GPGSA,A,3,00,00,00,00,00,00,00,,,,,,2.8,2.1,1.8*32
\c:1507783355640*67\$GPXTE,V,V,,R,N,N*0C
\c:1507783355783*69\$GPZDA,,,,,00,*48
\c:1507783355943*6B\$IIDBT,020.47,f,006.24,M,003.37,F*27
\c:1507783356039*6C\$GPGLL,,,,,,V,N*64
\c:1507783356215*60\$GPGSV,,,,,,,,,,,,,,,,,,,*79
\c:1507783356280*6C\$IIHDM,010,M*3D
\c:1507783356407*65\$IIHDT,006,T*3A
\c:1507783356505*66\$GPZDA,225240.00,12,10,2017,00,00*63
\c:1507783356505*66\$GPGGA,225240,4157.7218,N,08737.6057,W,1,07,2.08,169.91,M,-34.238,M,,*7F
\c:1507783356505*66\$GPRMC,225240,A,4157.7218,N,08737.6057,W,5.4892,5.327,121017,,*3D
\c:1507783356505*66\$GPGSA,A,3,00,00,00,00,00,00,00,,,,,,2.8,2.1,1.8*32
\c:1507783356600*60\$IIMWD,158.41,T,162.41,M,09.40,N,04.84,M*48
\c:1507783356664*62\$IIVDR,,,,,,N*0E
\c:1507783356839*64\$IIVHW,009,T,013,M,05.26,N,09.74,K*55
\c:1507783356935*69\$IIVPW,-4.81,N,,*21
\c:1507783357080*6F\$IIVTG,,,,,,N,,,N*69
\c:1507783357223*64\$IIMWV,137,T,08.88,N,A*28
\c:1507783357352*63\$IIVWT,137,R,08.88,N,04.57,M,,*3F
\c:1507783357431*61\$IIHDT,011,T*3C
\c:1507783357477*63\$GPGSV,3,1,12,10,75,339,44,18,67,100,40,32,49,261,49,24,43,061,45*7C
\c:1507783357477*63\$GPGSV,3,2,12,14,34,251,49,08,09,290,41,27,08,257,47,138,38,209,-0*54
\c:1507783357477*63\$GPGSV,3,3,12,21,27,176,39,15,10,066,40,12,07,104,33,25,01,138,-0*67
\c:1507783357511*62\$GPZDA,225241.00,12,10,2017,00,00*62
\c:1507783357511*62\$GPGGA,225241,4157.7234,N,08737.6054,W,1,07,2.08,170.06,M,-34.238,M,,*75
\c:1507783357511*62\$GPRMC,225241,A,4157.7234,N,08737.6054,W,5.7173,9.342,121017,,*3B
\c:1507783357511*62\$GPGSA,A,3,00,00,00,00,00,00,00,,,,,,2.8,2.1,1.8*32
\c:1507783357560*64\$GPWCV,,N,,N*55
\c:1507783357687*6E\$GPXTE,V,V,,R,N,N*0C
\c:1507783357831*6D\$GPZDA,,,,,00,*48
\c:1507783357991*66\$IIDBT,020.34,f,006.20,M,003.35,F*25
\c:1507783358088*68\$GPGLL,,,,,,V,N*64
\c:1507783358263*6F\$GPGSV,,,,,,,,,,,,,,,,,,,*79
\c:1507783358327*6E\$IIHDM,019,M*34
\c:1507783358455*6C\$IIHDT,015,T*38
\c:1507783358479*62\$GPGSV,3,1,12,10,75,339,45,18,67,100,42,32,49,261,48,24,43,061,44*7F
\c:1507783358479*62\$GPGSV,3,2,12,14,34,251,49,08,09,290,40,27,08,257,47,138,38,209,-0*55
\c:1507783358479*62\$GPGSV,3,3,12,21,27,176,38,15,10,066,40,12,07,104,33,25,01,138,-0*66
\c:1507783358505*68\$GPZDA,225242.00,12,10,2017,00,00*61
\c:1507783358505*68\$GPGGA,225242,4157.7250,N,08737.6050,W,1,07,2.08,170.16,M,-34.238,M,,*71
\c:1507783358505*68\$GPRMC,225242,A,4157.7250,N,08737.6050,W,5.5341,12.828,121017,,*02
\c:1507783358505*68\$GPGSA,A,3,00,00,00,00,00,00,00,,,,,,2.8,2.1,1.8*32
\c:1507783358647*6D\$IIMWD,157.99,T,161.99,M,10.63,N,05.47,M*43
\c:1507783358711*6F\$IIVDR,,,,,,N*0E
\c:1507783358888*60\$IIVHW,015,T,019,M,05.09,N,09.42,K*5A
\c:1507783358983*6A\$IIVPW,-3.84,N,,*23
\c:1507783359127*6D\$IIVTG,,,,,,N,,,N*69
\c:1507783359271*6D\$IIMWV,093,R,07.58,N,A*23
\c:1507783359399*6A\$IIVWT,127,R,09.38,N,04.83,M,,*3D
\c:1507783359476*6C\$GPGSV,3,1,12,10,75,339,46,18,67,100,42,32,49,261,46,24,43,061,43*75
\c:1507783359476*6C\$GPGSV,3,2,12,14,34,251,49,08,09,290,40,27,08,257,48,138,38,209,-0*5A
\c:1507783359476*6C\$GPGSV,3,3,12,21,27,176,36,15,10,066,38,12,07,104,35,25,01,138,-0*61
\c:1507783359478*62\$IIHDT,014,T*39
\c:1507783359506*6A\$GPZDA,225243.00,12,10,2017,00,00*60
\c:1507783359506*6A\$GPGGA,225243,4157.7265,N,08737.6046,W,1,07,2.08,170.46,M,-34.238,M,,*74
\c:1507783359506*6A\$GPRMC,225243,A,4157.7265,N,08737.6046,W,5.7486,12.034,121017,,*09
\c:1507783359506*6A\$GPGSA,A,3,00,00,00,00,00,00,00,,,,,,2.8,2.1,1.8*32
\c:1507783359607*68\$GPWCV,,N,,N*55
\c:1507783359735*68\$GPXTE,V,V,,R,N,N*0C
\c:1507783359879*6F\$GPZDA,,,,,00,*48
\c:1507783360039*69\$IIDBT,020.34,f,006.20,M,003.35,F*25
\c:1507783360135*64\$GPGLL,,,,,,V,N*64
\c:1507783360311*60\$GPGSV,,,,,,,,,,,,,,,,,,,*79
\c:1507783360374*63\$IIHDM,020,M*3E
\c:1507783360477*67\$GPGSV,3,1,12,10,75,339,45,18,67,100,43,32,49,261,45,24,43,061,43*74
\c:1507783360477*67\$GPGSV,3,2,12,14,34,251,49,08,09,290,39,27,08,257,48,138,38,209,-0*54
\c:1507783360477*67\$GPGSV,3,3,12,21,27,176,36,15,10,066,42,12,07,104,34,25,01,138,-0*6D
\c:1507783360503*65\$GPZDA,225244.00,12,10,2017,00,00*67
\c:1507783360503*65\$GPGGA,225244,4157.7282,N,08737.6043,W,1,07,2.08,170.77,M,-34.238,M,,*7D
\c:1507783360503*65\$GPRMC,225244,A,4157.7282,N,08737.6043,W,6.1475,8.297,121017,,*3B
\c:1507783360503*65\$GPGSA,A,3,00,00,00,00,00,00,00,,,,,,2.8,2.1,1.8*32
\c:1507783360503*65\$IIHDT,016,T*3B
\c:1507783360694*68\$IIMWD,178.30,T,182.30,M,12.65,N,06.51,M*43
\c:1507783360758*69\$IIVDR,,,,,,N*0E
\c:1507783360935*6C\$IIVHW,017,T,021,M,05.74,N,10.63,K*52
\c:1507783361031*60\$IIVPW,-5.55,N,,*29
\c:1507783361174*60\$IIVTG,,,,,,N,,,N*69
\c:1507783361319*69\$IIMWV,136,T,10.32,N,A*21
\c:1507783361446*64\$IIVWT,136,R,10.32,N,05.31,M,,*37
\c:1507783361479*68\$GPGSV,3,1,12,10,75,339,46,18,67,100,43,32,49,261,46,24,43,061,43*74
\c:1507783361479*68\$GPGSV,3,2,12,14,34,251,50,08,09,290,38,27,08,257,47,138,38,209,-0*52
\c:1507783361479*68\$GPGSV,3,3,12,21,27,176,37,15,10,066,42,12,07,104,34,25,01,138,-0*6C
\c:1507783361511*67\$GPZDA,225245.00,12,10,2017,00,00*66
\c:1507783361511*67\$GPGGA,225245,4157.7298,N,08737.6040,W,1,07,2.08,170.93,M,-34.238,M,,*7E
\c:1507783361511*67\$GPRMC,225245,A,4157.7298,N,08737.6040,W,5.8436,8.551,121017,,*32
\c:1507783361511*67\$GPGSA,A,3,00,00,00,00,00,00,00,,,,,,2.8,2.1,1.8*32
\c:1507783361527*62\$IIHDT,013,T*3E
\c:1507783361654*65\$GPWCV,,N,,N*55
\c:1507783361783*6E\$GPXTE,V,V,,R,N,N*0C
\c:1507783361926*6F\$GPZDA,,,,,00,*48
\c:1507783362086*6F\$IIDBT,020.43,f,006.23,M,003.36,F*25
\c:1507783362182*6A\$GPGLL,,,,,,V,N*64
\c:1507783362358*6F\$GPGSV,,,,,,,,,,,,,,,,,,,*79
\c:1507783362423*64\$IIHDM,013,M*3E
\c:1507783362477*65\$GPGSV,3,1,12,10,75,339,47,18,67,100,42,32,49,261,47,24,43,061,44*72
\c:1507783362477*65\$GPGSV,3,2,12,14,34,251,49,08,09,290,38,27,08,257,46,138,38,209,43*41
\c:1507783362477*65\$GPGSV,3,3,12,21,27,176,38,15,10,066,43,12,07,104,35,25,01,138,-0*63
\c:1507783362507*63\$GPZDA,225246.00,12,10,2017,00,00*65
\c:1507783362507*63\$GPGGA,225246,4157.7316,N,08737.6039,W,1,07,2.08,171.06,M,-34.238,M,,*79
\c:1507783362507*63\$GPRMC,225246,A,4157.7316,N,08737.6039,W,5.9459,4.512,121017,,*3B
\c:1507783362507*63\$GPGSA,A,3,00,00,00,00,00,00,00,,,,,,2.8,2.1,1.8*32
\c:1507783362550*61\$IIHDT,009,T*35
\c:1507783362743*61\$IIMWD,143.76,T,147.76,M,09.54,N,04.91,M*44
\c:1507783362806*6F\$IIVDR,,,,,,N*0E
\c:1507783362982*62\$IIVHW,007,T,011,M,06.16,N,11.40,K*57
\c:1507783363078*6F\$IIVPW,-3.23,N,,*2E
\c:1507783363223*63\$IIVTG,,,,,,N,,,N*69
\c:1507783363366*63\$IIMWV,094,R,06.41,N,A*2D
\c:1507783363478*6B\$GPGSV,3,1,12,10,75,339,48,18,67,100,41,32,49,261,46,24,43,061,43*78
\c:1507783363478*6B\$GPGSV,3,2,12,14,34,251,50,08,09,290,38,27,08,257,46,138,38,209,42*48
\c:1507783363478*6B\$GPGSV,3,3,12,21,27,176,38,15,10,066,42,12,07,104,35,25,01,138,-0*62
\c:1507783363494*69\$IIVWT,138,R,09.60,N,04.94,M,,*38
\c:1507783363514*60\$GPZDA,225247.00,12,10,2017,00,00*64
\c:1507783363514*60\$GPGGA,225247,4157.7334,N,08737.6039,W,1,07,2.08,171.18,M,-34.238,M,,*77
\c:1507783363514*60\$GPRMC,225247,A,4157.7334,N,08737.6039,W,5.9459,4.512,121017,,*3A
\c:1507783363514*60\$GPGSA,A,3,00,00,00,00,00,00,00,,,,,,2.8,2.1,1.8*32
\c:1507783363574*66\$IIHDT,005,T*39
\c:1507783363703*64\$GPWCV,,N,,N*55
\c:1507783363830*6B\$GPXTE,V,V,,R,N,N*0C
\c:1507783363973*6D\$GPZDA,,,,,00,*48
\c:1507783364133*66\$IIDBT,020.43,f,006.23,M,003.36,F*25
\c:1507783364230*66\$GPGLL,,,,,,V,N*64
\c:1507783364406*65\$GPGSV,,,,,,,,,,,,,,,,,,,*79
\c:1507783364470*64\$IIHDM,006,M*3A
\c:1507783364477*63\$GPGSV,3,1,12,10,75,339,47,18,67,100,41,32,49,261,47,24,43,061,42*77
\c:1507783364477*63\$GPGSV,3,2,12,14,34,251,49,08,09,290,40,27,08,257,45,138,38,209,41*4F
\c:1507783364477*63\$GPGSV,3,3,12,21,27,176,39,15,10,066,41,12,07,104,35,25,01,138,-0*60
\c:1507783364513*60\$GPZDA,225248.00,12,10,2017,00,00*6B
\c:1507783364513*60\$GPGGA,225248,4157.7350,N,08737.6036,W,1,07,2.08,171.15,M,-34.238,M,,*78
\c:1507783364513*60\$GPRMC,225248,A,4157.7350,N,08737.6036,W,5.9459,4.512,121017,,*38
\c:1507783364513*60\$GPGSA,A,3,00,00,00,00,00,00,00,,,,,,2.8,2.1,1.8*32
\c:1507783364598*63\$IIHDT,002,T*3E
\c:1507783364790*69\$IIMWD,140.31,T,144.31,M,07.79,N,04.01,M*4C
\c:1507783364854*6E\$IIVDR,,,,,,N*0E
\c:1507783365029*6D\$IIVHW,002,T,006,M,05.66,N,10.48,K*59
\c:1507783365126*63\$IIVPW,-3.42,N,,*29
\c:1507783365270*63\$IIVTG,,,,,,N,,,N*69
\c:1507783365413*60\$IIMWV,132,T,05.79,N,A*2E
\c:1507783365479*6C\$GPGSV,3,1,12,10,75,339,46,18,67,100,40,32,49,261,47,24,43,060,42*76
\c:1507783365479*6C\$GPGSV,3,2,12,14,34,251,49,08,09,290,39,27,08,257,45,138,38,209,-0*59
\c:1507783365479*6C\$GPGSV,3,3,12,21,27,176,39,15,10,066,43,12,07,104,-0,25,01,138,-0*79
\c:1507783365508*6B\$GPZDA,225249.00,12,10,2017,00,00*6A
\c:1507783365508*6B\$GPGGA,225249,4157.7366,N,08737.6038,W,1,07,2.08,170.97,M,-34.238,M,,*79
\c:1507783365508*6B\$GPRMC,225249,A,4157.7366,N,08737.6038,W,5.7306,354.236,121017,,*36
\c:1507783365508*6B\$GPGSA,A,3,00,00,00,00,00,00,00,,,,,,2.8,2.1,1.8*32
\c:1507783365542*65\$IIVWT,132,R,05.79,N,02.98,M,,*3C
\c:1507783365621*63\$IIHDT,001,T*3D
\c:1507783365750*64\$GPWCV,,N,,N*55
\c:1507783365877*6E\$GPXTE,V,V,,R,N,N*0C
\c:1507783366022*65\$GPZDA,,,,,00,*48
\c:1507783366182*6E\$IIDBT,020.60,f,006.28,M,003.39,F*20
\c:1507783366278*68\$GPGLL,,,,,,V,N*64
\c:1507783366454*60\$GPGSV,,,,,,,,,,,,,,,,,,,*79
\c:1507783366480*69\$GPGSV,3,1,12,10,75,339,45,18,67,100,39,32,49,261,47,24,43,060,45*7C
\c:1507783366480*69\$GPGSV,3,2,12,14,34,251,50,08,09,290,40,27,08,257,46,138,38,209,-0*5C
\c:1507783366480*69\$GPGSV,3,3,12,21,27,176,38,15,10,066,42,12,07,104,-0,25,01,138,-0*79
\c:1507783366505*65\$GPZDA,225250.00,12,10,2017,00,00*62
\c:1507783366505*65\$GPGGA,225250,4157.7382,N,08737.6038,W,1,07,2.08,170.89,M,-34.238,M,,*74
\c:1507783366505*65\$GPRMC,225250,A,4157.7382,N,08737.6038,W,5.9823,357.654,121017,,*35
\c:1507783366505*65\$GPGSA,A,3,00,00,00,00,00,00,00,,,,,,2.8,2.1,1.8*32
\c:1507783366517*66\$IIHDM,009,M*35
\c:1507783366646*61\$IIHDT,005,T*39
\c:1507783366837*69\$IIMWD,165.49,T,169.49,M,09.27,N,04.77,M*40
\c:1507783366901*6D\$IIVDR,,,,,,N*0E
\c:1507783367078*6B\$IIVHW,006,T,010,M,05.33,N,09.87,K*51
\c:1507783367173*61\$IIVPW,-4.39,N,,*22
\c:1507783367317*61\$IIVTG,,,,,,N,,,N*69
\c:1507783367461*67\$IIMWV,109,R,05.24,N,A*28
\c:1507783367480*68\$GPGSV,3,1,12,10,75,339,46,18,67,100,40,32,49,261,46,24,43,060,47*72
\c:1507783367480*68\$GPGSV,3,2,12,14,34,251,50,08,09,290,41,27,08,257,46,138,38,209,44*40
\c:1507783367480*68\$GPGSV,3,3,12,21,27,176,38,15,10,066,42,12,07,104,-0,25,01,138,-0*79
\c:1507783367522*61\$GPZDA,225251.00,12,10,2017,00,00*63
\c:1507783367522*61\$GPGGA,225251,4157.7399,N,08737.6038,W,1,07,2.08,170.85,M,-34.238,M,,*73
\c:1507783367522*61\$GPRMC,225251,A,4157.7399,N,08737.6038,W,5.8624,1.897,121017,,*37
\c:1507783367522*61\$GPGSA,A,3,00,00,00,00,00,00,00,,,,,,2.8,2.1,1.8*32
\c:1507783367589*60\$IIVWT,144,R,08.35,N,04.30,M,,*3C
\c:1507783367670*65\$IIHDT,004,T*38
\c:1507783367797*6D\$GPWCV,,N,,N*55
\c:1507783367926*69\$GPXTE,V,V,,R,N,N*0C
\c:1507783368069*64\$GPZDA,,,,,00,*48
\c:1507783368229*62\$IIDBT,020.43,f,006.23,M,003.36,F*25
\c:1507783368341*6D\$GPGLL,,,,,,V,N*64
\c:1507783368479*61\$GPGSV,3,1,12,10,75,339,47,18,67,100,40,32,49,261,46,24,43,060,46*72
\c:1507783368479*61\$GPGSV,3,2,12,14,34,251,50,08,09,290,40,27,08,257,45,138,38,209,45*43
\c:1507783368479*61\$GPGSV,3,3,12,21,27,176,39,15,10,066,43,12,07,104,35,25,01,138,-0*62
\c:1507783368501*6F\$GPGSV,,,,,,,,,,,,,,,,,,,*79
\c:1507783368509*67\$GPZDA,225252.00,12,10,2017,00,00*60
\c:1507783368509*67\$GPGGA,225252,4157.7415,N,08737.6036,W,1,07,2.08,170.82,M,-34.238,M,,*7A
\c:1507783368509*67\$GPRMC,225252,A,4157.7415,N,08737.6036,W,5.7390,4.861,121017,,*30
\c:1507783368509*67\$GPGSA,A,3,00,00,00,00,00,00,00,,,,,,2.8,2.1,1.8*32
\c:1507783368566*6E\$IIHDM,013,M*3E
\c:1507783368693*67\$IIHDT,009,T*35
\c:1507783368886*6D\$IIMWD,150.07,T,154.07,M,08.28,N,04.26,M*42
\c:1507783368949*6F\$IIVDR,,,,,,N*0E
\c:1507783369125*6C\$IIVHW,010,T,014,M,05.37,N,09.94,K*54
\c:1507783369221*6B\$IIVPW,-4.94,N,,*25
\c:1507783369366*69\$IIVTG,,,,,,N,,,N*69
\c:1507783369480*66\$GPGSV,3,1,12,10,75,339,47,18,67,100,40,32,49,261,47,24,43,060,47*72
\c:1507783369480*66\$GPGSV,3,2,12,14,34,251,49,08,09,290,40,27,08,257,46,138,38,209,45*48
\c:1507783369480*66\$GPGSV,3,3,12,21,27,176,38,15,10,066,44,12,07,104,-0,25,01,137,-0*70
\c:1507783369507*68\$GPZDA,225253.00,12,10,2017,00,00*61
\c:1507783369507*68\$GPGGA,225253,4157.7432,N,08737.6036,W,1,07,2.08,170.85,M,-34.238,M,,*79
\c:1507783369507*68\$GPRMC,225253,A,4157.7432,N,08737.6036,W,5.8127,1.822,121017,,*37
\c:1507783369507*68\$GPGSA,A,3,00,00,00,00,00,00,00,,,,,,2.8,2.1,1.8*32
\c:1507783369509*66\$IIMWV,160,T,10.69,N,A*2C
\c:1507783369636*69\$IIVWT,160,R,10.69,N,05.50,M,,*3D
\c:1507783369717*6B\$IIHDT,011,T*3C
\c:1507783369844*62\$GPWCV,,N,,N*55
\c:1507783369973*67\$GPXTE,V,V,,R,N,N*0C
\c:1507783370116*64\$GPZDA,,,,,00,*48
\c:1507783370276*61\$IIDBT,020.27,f,006.18,M,003.34,F*2D
\c:1507783370389*60\$GPGLL,,,,,,V,N*64
\c:1507783370480*6E\$GPGSV,3,1,12,10,75,339,47,18,67,100,40,32,49,261,47,24,43,060,48*7D
\c:1507783370480*6E\$GPGSV,3,2,12,14,34,251,49,08,09,290,41,27,08,257,46,138,38,209,44*48
\c:1507783370480*6E\$GPGSV,3,3,12,21,27,176,38,15,10,066,43,12,07,104,-0,25,01,137,-0*77
\c:1507783370506*61\$GPZDA,225254.00,12,10,2017,00,00*66
\c:1507783370506*61\$GPGGA,225254,4157.7449,N,08737.6034,W,1,07,2.08,170.87,M,-34.238,M,,*72
\c:1507783370506*61\$GPRMC,225254,A,4157.7449,N,08737.6034,W,6.0231,4.366,121017,,*3F
\c:1507783370506*61\$GPGSA,A,3,00,00,00,00,00,00,00,,,,,,2.8,2.1,1.8*32
\c:1507783370549*6A\$GPGSV,,,,,,,,,,,,,,,,,,,*79
\c:1507783370629*6F\$IIHDM,014,M*39
\c:1507783370741*60\$IIHDT,010,T*3D
\c:1507783370933*6B\$IIMWD,153.61,T,157.61,M,10.39,N,05.35,M*48
\c:1507783370997*65\$IIVDR,,,,,,N*0E
\c:1507783371172*67\$IIVHW,006,T,010,M,06.39,N,11.83,K*55
\c:1507783371269*6E\$IIVPW,-4.54,N,,*29
\c:1507783371413*65\$IIVTG,,,,,,N,,,N*69
\c:1507783371480*6F\$GPGSV,3,1,12,10,75,339,48,18,67,100,40,32,49,261,47,24,43,060,46*7C
\c:1507783371480*6F\$GPGSV,3,2,12,14,34,251,49,08,09,290,40,27,08,257,44,138,38,209,44*4B
\c:1507783371480*6F\$GPGSV,3,3,12,21,27,176,38,15,10,066,44,12,07,104,36,25,01,137,-0*68
\c:1507783371506*60\$GPZDA,225255.00,12,10,2017,00,00*67
\c:1507783371506*60\$GPGGA,225255,4157.7465,N,08737.6033,W,1,07,2.08,170.97,M,-34.238,M,,*7B
\c:1507783371506*60\$GPRMC,225255,A,4157.7465,N,08737.6033,W,6.0447,1.913,121017,,*3D
\c:1507783371506*60\$GPGSA,A,3,00,00,00,00,00,00,00,,,,,,2.8,2.1,1.8*32
\c:1507783371556*65\$IIMWV,095,R,06.80,N,A*21
\c:1507783371685*68\$IIVWT,134,R,09.42,N,04.85,M,,*34
\c:1507783371764*66\$IIHDT,003,T*3F
\c:1507783371893*61\$GPWCV,,N,,N*55
\c:1507783372020*62\$GPXTE,V,V,,R,N,N*0C
\c:1507783372165*62\$GPZDA,,,,,00,*48
\c:1507783372325*64\$IIDBT,020.20,f,006.16,M,003.32,F*22
\c:1507783372436*61\$GPGLL,,,,,,V,N*64
\c:1507783372479*6A\$GPGSV,3,1,12,10,75,339,48,18,67,100,41,32,49,261,47,24,43,060,45*7E
\c:1507783372479*6A\$GPGSV,3,2,12,14,34,251,48,08,09,290,40,27,08,257,45,138,38,209,43*4C
\c:1507783372479*6A\$GPGSV,3,3,12,21,27,176,38,15,10,066,44,12,07,104,35,25,01,137,-0*6B
\c:1507783372508*6D\$GPZDA,225256.00,12,10,2017,00,00*64
\c:1507783372508*6D\$GPGGA,225256,4157.7481,N,08737.6032,W,1,07,2.08,170.84,M,-34.238,M,,*71
\c:1507783372508*6D\$GPRMC,225256,A,4157.7481,N,08737.6032,W,5.9038,1.131,121017,,*3B
\c:1507783372508*6D\$GPGSA,A,3,00,00,00,00,00,00,00,,,,,,2.8,2.1,1.8*32
\c:1507783372596*6A\$GPGSV,,,,,,,,,,,,,,,,,,,*79
\c:1507783372676*67\$IIHDM,011,M*3C
\c:1507783372789*66\$IIHDT,007,T*3B
\c:1507783372980*61\$IIMWD,177.64,T,181.64,M,10.88,N,05.60,M*4F
\c:1507783373044*61\$IIVDR,,,,,,N*0E
\c:1507783373221*60\$IIVHW,006,T,010,M,05.91,N,10.94,K*53
\c:1507783373316*65\$IIVPW,-5.39,N,,*23
\c:1507783373460*63\$IIVTG,,,,,,N,,,N*69
\c:1507783373480*6D\$GPGSV,3,1,12,10,75,339,47,18,67,100,41,32,49,261,48,24,43,060,47*7C
\c:1507783373480*6D\$GPGSV,3,2,12,14,34,251,49,08,09,290,40,27,08,257,44,138,38,209,-0*56
\c:1507783373480*6D\$GPGSV,3,3,12,21,27,176,39,15,10,066,45,12,07,104,34,25,01,137,-0*6A
\c:1507783373513*66\$GPZDA,225257.00,12,10,2017,00,00*65
\c:1507783373513*66\$GPGGA,225257,4157.7497,N,08737.6033,W,1,07,2.08,170.88,M,-34.238,M,,*7A
\c:1507783373513*66\$GPRMC,225257,A,4157.7497,N,08737.6033,W,5.8744,356.368,121017,,*3E
\c:1507783373513*66\$GPGSA,A,3,00,00,00,00,00,00,00,,,,,,2.8,2.1,1.8*32
\c:1507783373604*63\$IIMWV,141,T,07.07,N,A*21
\c:1507783373732*67\$IIVWT,141,R,07.07,N,03.64,M,,*31
\c:1507783373812*6A\$IIHDT,003,T*3F
\c:1507783373940*6C\$GPWCV,,N,,N*55
\c:1507783374069*69\$GPXTE,V,V,,R,N,N*0C
\c:1507783374212*67\$GPZDA,,,,,00,*48
\c:1507783374372*60\$IIDBT,020.86,f,006.36,M,003.43,F*2A
\c:1507783374477*62\$GPGSV,3,1,12,10,75,339,46,18,67,100,40,32,49,261,48,24,43,060,45*7E
\c:1507783374477*62\$GPGSV,3,2,12,14,34,251,49,08,09,290,40,27,08,257,44,138,38,209,48*47
\c:1507783374477*62\$GPGSV,3,3,12,21,27,176,39,15,10,066,44,12,07,104,-0,25,01,137,-0*71
\c:1507783374484*6E\$GPGLL,,,,,,V,N*64
\c:1507783374504*67\$GPZDA,225258.00,12,10,2017,00,00*6A
\c:1507783374504*67\$GPGGA,225258,4157.7512,N,08737.6033,W,1,07,2.08,170.63,M,-34.238,M,,*7C
\c:1507783374504*67\$GPRMC,225258,A,4157.7512,N,08737.6033,W,5.7501,359.870,121017,,*3C
\c:1507783374504*67\$GPGSA,A,3,00,00,00,00,00,00,00,,,,,,2.8,2.1,1.8*32
\c:1507783374644*60\$GPGSV,,,,,,,,,,,,,,,,,,,*79
\c:1507783374724*67\$IIHDM,006,M*3A
\c:1507783374836*6B\$IIHDT,002,T*3E
\c:1507783375027*62\$IIMWD,152.37,T,156.37,M,10.34,N,05.32,M*42
\c:1507783375091*6F\$IIVDR,,,,,,N*0E
\c:1507783375268*6B\$IIVHW,003,T,007,M,05.62,N,10.40,K*55
\c:1507783375364*66\$IIVPW,-4.76,N,,*29
\c:1507783375480*6B\$GPGSV,3,1,12,10,75,339,46,18,67,100,41,32,49,261,48,24,43,060,46*7C
\c:1507783375480*6B\$GPGSV,3,2,12,14,34,251,48,08,09,290,41,27,08,257,44,138,38,209,47*48
\c:1507783375480*6B\$GPGSV,3,3,12,21,27,176,38,15,10,066,45,12,07,104,-0,25,01,137,-0*71
\c:1507783375505*67\$GPZDA,225259.00,12,10,2017,00,00*6B
\c:1507783375506*64\$GPGGA,225259,4157.7525,N,08737.6033,W,1,07,2.08,170.38,M,-34.238,M,,*77
\c:1507783375506*64\$GPRMC,225259,A,4157.7525,N,08737.6033,W,4.8447,0.725,121017,,*34
\c:1507783375506*64\$GPGSA,A,3,00,00,00,00,00,00,00,,,,,,2.8,2.1,1.8*32
\c:1507783375507*65\$IIVTG,,,,,,N,,,N*69
\c:1507783375667*60\$IIMWV,119,R,05.83,N,A*24
\c:1507783375779*6E\$IIVWT,149,R,09.87,N,05.08,M,,*33
\c:1507783375860*69\$IIHDT,005,T*39
\c:1507783375987*61\$GPWCV,,N,,N*55
\c:1507783376116*62\$GPXTE,V,V,,R,N,N*0C
\c:1507783376259*6A\$GPZDA,,,,,00,*48
\c:1507783376419*68\$IIDBT,020.30,f,006.19,M,003.34,F*2A
\c:1507783376480*68\$GPGSV,3,1,12,10,75,339,46,18,67,100,41,32,49,261,48,24,43,060,47*7D
\c:1507783376480*68\$GPGSV,3,2,12,14,34,251,49,08,09,290,41,27,08,257,43,138,38,209,46*4F
\c:1507783376480*68\$GPGSV,3,3,12,21,27,176,39,15,10,066,45,12,07,104,-0,25,01,137,-0*70
\c:1507783376507*66\$GPZDA,225300.00,12,10,2017,00,00*66
\c:1507783376507*66\$GPGGA,225300,4157.7541,N,08737.6032,W,1,07,2.08,170.32,M,-34.238,M,,*73
\c:1507783376507*66\$GPRMC,225300,A,4157.7541,N,08737.6032,W,5.8348,0.647,121017,,*36
\c:1507783376507*66\$GPGSA,A,3,00,00,00,00,00,00,00,,,,,,2.8,2.1,1.8*32
\c:1507783376531*63\$GPGLL,,,,,,V,N*64
\c:1507783376691*6A\$GPGSV,,,,,,,,,,,,,,,,,,,*79
\c:1507783376772*66\$IIHDM,008,M*34
\c:1507783376883*67\$IIHDT,004,T*38
\c:1507783377076*64\$IIMWD,144.37,T,148.37,M,09.31,N,04.79,M*49
\c:1507783377140*60\$IIVDR,,,,,,N*0E
\c:1507783377331*64\$IIVHW,005,T,009,M,05.60,N,10.37,K*5F
\c:1507783377411*61\$IIVPW,-5.11,N,,*29
\c:1507783377480*69\$GPGSV,3,1,12,10,75,339,46,18,67,100,40,32,49,261,47,24,43,060,47*73
\c:1507783377480*69\$GPGSV,3,2,12,14,34,251,48,08,09,290,40,27,08,256,44,138,38,209,46*49
\c:1507783377480*69\$GPGSV,3,3,12,21,27,176,38,15,10,066,44,12,07,104,-0,25,01,137,-0*70
\c:1507783377529*6B\$GPZDA,225301.00,12,10,2017,00,00*67
\c:1507783377530*63\$GPGGA,225301,4157.7556,N,08737.6031,W,1,07,2.08,170.37,M,-34.238,M,,*72
\c:1507783377530*63\$GPRMC,225301,A,4157.7556,N,08737.6031,W,5.7666,1.949,121017,,*34
\c:1507783377530*63\$GPGSA,A,3,00,00,00,00,00,00,00,,,,,,2.8,2.1,1.8*32
\c:1507783377556*63\$IIVTG,,,,,,N,,,N*69
\c:1507783377716*65\$IIMWV,160,T,11.37,N,A*26
\c:1507783377828*67\$IIVWT,160,R,11.37,N,05.85,M,,*3F
\c:1507783377907*6B\$IIHDT,008,T*34
\c:1507783378036*6F\$GPWCV,,N,,N*55
\c:1507783378163*6E\$GPXTE,V,V,,R,N,N*0C
\c:1507783378307*6E\$GPZDA,,,,,00,*48
\c:1507783378467*6F\$IIDBT,020.63,f,006.29,M,003.39,F*22
\c:1507783378480*66\$GPGSV,3,1,12,10,75,339,45,18,67,100,40,32,49,261,48,24,43,060,47*7F
\c:1507783378480*66\$GPGSV,3,2,12,14,34,251,49,08,09,290,40,27,08,256,45,138,38,209,45*4A
\c:1507783378480*66\$GPGSV,3,3,12,21,27,176,38,15,10,066,45,12,07,104,-0,25,01,137,-0*71
\c:1507783378517*69\$GPZDA,225302.00,12,10,2017,00,00*64
\c:1507783378517*69\$GPGGA,225302,4157.7573,N,08737.6031,W,1,08,2.08,170.25,M,-34.238,M,,*7A
\c:1507783378517*69\$GPRMC,225302,A,4157.7573,N,08737.6031,W,5.8451,3.136,121017,,*3B
\c:1507783378517*69\$GPGSA,A,3,00,00,00,00,00,00,00,00,,,,,2.8,2.1,1.8*32
\c:1507783378579*61\$GPGLL,,,,,,V,N*64
\c:1507783378739*67\$GPGSV,,,,,,,,,,,,,,,,,,,*79
\c:1507783378819*6A\$IIHDM,010,M*3D
\c:1507783378931*61\$IIHDT,006,T*3A
\c:1507783379123*6B\$IIMWD,157.54,T,161.54,M,10.88,N,05.60,M*43
\c:1507783379187*65\$IIVDR,,,,,,N*0E
\c:1507783379379*66\$IIVHW,004,T,008,M,06.37,N,11.79,K*55
\c:1507783379459*63\$IIVPW,-5.43,N,,*2E
\c:1507783379477*6F\$GPGSV,3,1,12,10,75,339,46,18,67,100,39,32,49,261,48,24,43,060,46*73
\c:1507783379477*6F\$GPGSV,3,2,12,14,34,251,48,08,09,290,40,27,08,256,45,138,38,209,44*4A
\c:1507783379477*6F\$GPGSV,3,3,12,21,27,176,39,15,10,066,45,12,07,104,-0,25,01,137,-0*70
\c:1507783379509*67\$GPZDA,225303.00,12,10,2017,00,00*65
\c:1507783379509*67\$GPGGA,225303,4157.7590,N,08737.6031,W,1,08,2.08,170.31,M,-34.238,M,,*73
\c:1507783379510*6F\$GPRMC,225303,A,4157.7590,N,08737.6031,W,6.1140,0.851,121017,,*33
\c:1507783379510*6F\$GPGSA,A,3,00,00,00,00,00,00,00,00,,,,,2.8,2.1,1.8*32
\c:1507783379603*6E\$IIVTG,,,,,,N,,,N*69
\c:1507783379763*69\$IIMWV,104,R,07.19,N,A*29
\c:1507783379875*61\$IIVWT,138,R,10.45,N,05.38,M,,*30
\c:1507783379954*63\$IIHDT,003,T*3F
\c:1507783380083*66\$GPWCV,,N,,N*55
\c:1507783380211*6F\$GPXTE,V,V,,R,N,N*0C
\c:1507783380355*6E\$GPZDA,,,,,00,*48
\c:1507783380480*61\$GPGSV,3,1,12,10,75,339,48,18,67,100,39,32,49,261,48,24,43,060,46*7D
\c:1507783380480*61\$GPGSV,3,2,12,14,34,251,48,08,09,290,39,27,08,256,44,138,38,209,43*42
\c:1507783380480*61\$GPGSV,3,3,12,21,27,176,39,15,10,066,45,12,07,104,37,25,01,137,-0*69
\c:1507783380512*6B\$GPZDA,225304.00,12,10,2017,00,00*62
\c:1507783380513*6A\$GPGGA,225304,4157.7606,N,08737.6030,W,1,08,2.08,170.44,M,-34.238,M,,*7B
\c:1507783380513*6A\$GPRMC,225304,A,4157.7606,N,08737.6030,W,5.9907,1.029,121017,,*3F
\c:1507783380513*6A\$GPGSA,A,3,00,00,00,00,00,00,00,00,,,,,2.8,2.1,1.8*32
\c:1507783380515*6C\$IIDBT,020.47,f,006.24,M,003.37,F*27
\c:1507783380627*6E\$GPGLL,,,,,,V,N*64
\c:1507783380787*65\$GPGSV,,,,,,,,,,,,,,,,,,,*79
\c:1507783380867*64\$IIHDM,009,M*35
\c:1507783380979*6A\$IIHDT,005,T*39
\c:1507783381170*6A\$IIMWD,168.03,T,172.03,M,11.79,N,06.07,M*40
\c:1507783381234*69\$IIVDR,,,,,,N*0E
\c:1507783381427*6D\$IIVHW,005,T,009,M,06.42,N,11.89,K*58
\c:1507783381477*68\$GPGSV,3,1,12,10,75,339,47,18,67,100,39,32,49,261,49,24,43,060,46*73
\c:1507783381477*68\$GPGSV,3,2,12,14,34,251,49,08,09,290,38,27,08,256,43,138,38,209,42*44
\c:1507783381477*68\$GPGSV,3,3,12,21,27,176,38,15,10,066,44,12,07,104,36,25,01,137,-0*68
\c:1507783381503*6A\$GPZDA,225305.00,12,10,2017,00,00*63
\c:1507783381504*6D\$GPGGA,225305,4157.7621,N,08737.6030,W,1,08,2.08,170.28,M,-34.238,M,,*75
\c:1507783381504*6D\$GPRMC,225305,A,4157.7621,N,08737.6030,W,5.6375,358.370,121017,,*3B
\c:1507783381504*6D\$GPGSA,A,3,00,00,00,00,00,00,00,00,,,,,2.8,2.1,1.8*32
\c:1507783381507*6E\$IIVPW,-5.76,N,,*28
\c:1507783381650*6F\$IIVTG,,,,,,N,,,N*69
\c:1507783381810*65\$IIMWV,151,T,09.91,N,A*21
\c:1507783381922*65\$IIVWT,151,R,09.91,N,05.10,M,,*34
\c:1507783382003*6C\$IIHDT,001,T*3D
\c:1507783382130*6D\$GPWCV,,N,,N*55
\c:1507783382259*61\$GPXTE,V,V,,R,N,N*0C
\c:1507783382402*69\$GPZDA,,,,,00,*48
\c:1507783382481*62\$GPGSV,3,1,12,10,75,339,46,18,67,100,39,32,49,261,48,24,43,060,47*72
\c:1507783382481*62\$GPGSV,3,2,12,14,34,251,48,08,09,290,40,27,08,256,44,138,38,209,42*4D
\c:1507783382481*62\$GPGSV,3,3,12,21,27,176,37,15,10,066,43,12,07,104,36,25,01,137,-0*60
\c:1507783382513*68\$GPZDA,225306.00,12,10,2017,00,00*60
\c:1507783382513*68\$GPGGA,225306,4157.7636,N,08737.6030,W,1,08,2.08,170.00,M,-34.238,M,,*7A
\c:1507783382514*6F\$GPRMC,225306,A,4157.7636,N,08737.6030,W,5.6375,358.370,121017,,*3E
\c:1507783382514*6F\$GPGSA,A,3,00,00,00,00,00,00,00,00,,,,,2.8,2.1,1.8*32
\c:1507783382562*6E\$IIDBT,020.57,f,006.27,M,003.38,F*2A
\c:1507783382674*6A\$GPGLL,,,,,,V,N*64
\c:1507783382834*60\$GPGSV,,,,,,,,,,,,,,,,,,,*79
\c:1507783382914*63\$IIHDM,005,M*39
\c:1507783383026*6A\$IIHDT,001,T*3D
\c:1507783383219*64\$IIMWD,168.34,T,172.34,M,10.49,N,05.40,M*42
\c:1507783383282*66\$IIVDR,,,,,,N*0E
\c:1507783383474*69\$IIVHW,003,T,007,M,05.53,N,10.24,K*55
\c:1507783383477*6A\$GPGSV,3,1,12,10,75,339,45,18,67,100,-0,32,49,261,47,24,43,060,47*69
\c:1507783383478*65\$GPGSV,3,2,12,14,34,251,49,08,09,290,41,27,08,256,45,138,38,209,42*4C
\c:1507783383478*65\$GPGSV,3,3,12,21,27,176,37,15,10,066,42,12,07,104,37,25,01,137,-0*60
\c:1507783383509*62\$GPZDA,225307.00,12,10,2017,00,00*61
\c:1507783383510*6A\$GPGGA,225307,4157.7651,N,08737.6032,W,1,08,2.08,170.13,M,-34.238,M,,*7A
\c:1507783383510*6A\$GPRMC,225307,A,4157.7651,N,08737.6032,W,5.6670,354.773,121017,,*37
\c:1507783383510*6A\$GPGSA,A,3,00,00,00,00,00,00,00,00,,,,,2.8,2.1,1.8*32
\c:1507783383554*6A\$IIVPW,-5.14,N,,*2C
\c:1507783383699*68\$IIVTG,,,,,,N,,,N*69
\c:1507783383859*6A\$IIMWV,113,R,04.85,N,A*29
\c:1507783383970*60\$IIVWT,152,R,09.44,N,04.86,M,,*31
\c:1507783384050*6C\$IIHDT,002,T*3E
\c:1507783384179*66\$GPWCV,,N,,N*55
\c:1507783384306*6C\$GPXTE,V,V,,R,N,N*0C
\c:1507783384450*68\$GPZDA,,,,,00,*48
\c:1507783384477*6D\$GPGSV,3,1,12,10,75,339,45,18,67,100,-0,32,49,261,47,24,43,060,46*68
\c:1507783384477*6D\$GPGSV,3,2,12,14,34,251,48,08,09,290,41,27,08,256,44,138,38,209,41*4F
\c:1507783384477*6D\$GPGSV,3,3,12,21,27,176,37,15,10,066,43,12,07,104,37,25,01,137,-0*61
\c:1507783384502*6E\$GPZDA,225308.00,12,10,2017,00,00*6E
\c:1507783384502*6E\$GPGGA,225308,4157.7667,N,08737.6034,W,1,08,2.08,170.20,M,-34.238,M,,*76
\c:1507783384503*6F\$GPRMC,225308,A,4157.7667,N,08737.6034,W,5.9367,355.816,121017,,*3A
\c:1507783384503*6F\$GPGSA,A,3,00,00,00,00,00,00,00,00,,,,,2.8,2.1,1.8*32
\c:1507783384610*6E\$IIDBT,020.34,f,006.20,M,003.35,F*25
\c:1507783384722*6E\$GPGLL,,,,,,V,N*64
\c:1507783384882*6B\$GPGSV,,,,,,,,,,,,,,,,,,,*79
\c:1507783384962*64\$IIHDM,003,M*3F
\c:1507783385074*6B\$IIHDT,359,T*33
\c:1507783385266*6A\$IIMWD,139.04,T,143.04,M,09.40,N,04.84,M*4C
\c:1507783385330*68\$IIVDR,,,,,,N*0E
\c:1507783385479*62\$GPGSV,3,1,12,10,75,339,46,18,67,100,41,32,49,261,47,24,43,060,45*70
\c:1507783385479*62\$GPGSV,3,2,12,14,34,251,48,08,09,290,41,27,08,256,44,138,38,209,-0*57
\c:1507783385479*62\$GPGSV,3,3,12,21,27,176,37,15,10,066,44,12,07,104,37,25,01,137,-0*66
\c:1507783385515*69\$GPZDA,225309.00,12,10,2017,00,00*6F
\c:1507783385515*69\$GPGGA,225309,4157.7682,N,08737.6034,W,1,08,2.08,170.30,M,-34.238,M,,*7D
\c:1507783385515*69\$GPRMC,225309,A,4157.7682,N,08737.6034,W,5.8686,357.743,121017,,*36
\c:1507783385516*6A\$GPGSA,A,3,00,00,00,00,00,00,00,00,,,,,2.8,2.1,1.8*32
\c:1507783385522*6D\$IIVHW,003,T,007,M,05.77,N,10.68,K*5B
\c:1507783385602*6C\$IIVPW,-5.05,N,,*2C
\c:1507783385746*6D\$IIVTG,,,,,,N,,,N*69
\c:1507783385906*67\$IIMWV,169,T,10.51,N,A*2E
\c:1507783386018*62\$IIVWT,169,R,10.51,N,05.41,M,,*3F
\c:1507783386097*65\$IIHDT,005,T*39
\c:1507783386226*6D\$GPWCV,,N,,N*55
\c:1507783386353*6E\$GPXTE,V,V,,R,N,N*0C
\c:1507783386477*6F\$GPGSV,3,1,12,10,75,339,45,18,67,100,40,32,49,261,47,24,43,060,46*71
\c:1507783386477*6F\$GPGSV,3,2,12,14,34,251,48,08,09,290,42,27,08,256,45,138,38,209,43*4F
\c:1507783386477*6F\$GPGSV,3,3,12,21,27,176,38,15,10,066,43,12,07,104,36,25,01,137,-0*6F
\c:1507783386498*6E\$GPZDA,,,,,00,*48
\c:1507783386509*67\$GPZDA,225310.00,12,10,2017,00,00*67
\c:1507783386510*6F\$GPGGA,225310,4157.7698,N,08737.6036,W,1,08,2.08,170.24,M,-34.238,M,,*79
\c:1507783386510*6F\$GPRMC,225310,A,4157.7698,N,08737.6036,W,5.7806,355.212,121017,,*3D
\c:1507783386510*6F\$GPGSA,A,3,00,00,00,00,00,00,00,00,,,,,2.8,2.1,1.8*32
\c:1507783386658*60\$IIDBT,020.43,f,006.23,M,003.36,F*25
\c:1507783386770*6B\$GPGLL,,,,,,V,N*64
\c:1507783386930*61\$GPGSV,,,,,,,,,,,,,,,,,,,*79
\c:1507783387010*6B\$IIHDM,005,M*39
\c:1507783387122*6B\$IIHDT,001,T*3D
\c:1507783387313*6B\$IIMWD,143.30,T,147.30,M,07.91,N,04.07,M*4C
\c:1507783387377*69\$IIVDR,,,,,,N*0E
\c:1507783387479*60\$GPGSV,3,1,12,10,75,339,47,18,67,100,-0,32,49,261,47,24,43,060,45*69
\c:1507783387479*60\$GPGSV,3,2,12,14,34,251,49,08,09,290,41,27,08,256,45,138,38,209,-0*57
\c:1507783387479*60\$GPGSV,3,3,12,21,27,176,38,15,10,066,44,12,07,104,36,25,01,137,-0*68
\c:1507783387501*6E\$GPZDA,225311.00,12,10,2017,00,00*66
\c:1507783387502*6D\$GPGGA,225311,4157.7713,N,08737.6037,W,1,08,2.08,170.40,M,-34.238,M,,*79
\c:1507783387502*6D\$GPRMC,225311,A,4157.7713,N,08737.6037,W,5.7745,357.174,121017,,*36
\c:1507783387502*6D\$GPGSA,A,3,00,00,00,00,00,00,00,00,,,,,2.8,2.1,1.8*32
\c:1507783387569*60\$IIVHW,000,T,004,M,05.47,N,10.13,K*54
\c:1507783387650*69\$IIVPW,-5.22,N,,*29
\c:1507783387793*67\$IIVTG,,,,,,N,,,N*69
\c:1507783387953*65\$IIMWV,146,R,05.24,N,A*23
\c:1507783388065*66\$IIVWT,163,R,10.22,N,05.26,M,,*30
\c:1507783388146*66\$IIHDT,002,T*3E
\c:1507783388273*63\$GPWCV,,N,,N*55
\c:1507783388402*63\$GPXTE,V,V,,R,N,N*0C
\c:1507783388477*61\$GPGSV,3,1,12,10,75,339,46,18,67,100,36,32,49,261,47,24,43,060,45*70
\c:1507783388477*61\$GPGSV,3,2,12,14,34,251,49,08,09,290,41,27,08,256,45,138,38,209,-0*57
\c:1507783388477*61\$GPGSV,3,3,12,21,27,176,38,15,10,066,45,12,07,104,37,25,01,137,-0*68
\c:1507783388510*61\$GPZDA,225312.00,12,10,2017,00,00*65
\c:1507783388511*60\$GPGGA,225312,4157.7729,N,08737.6038,W,1,08,2.08,170.32,M,-34.238,M,,*79
\c:1507783388511*60\$GPRMC,225312,A,4157.7729,N,08737.6038,W,5.7373,357.840,121017,,*3C
\c:1507783388511*60\$GPGSA,A,3,00,00,00,00,00,00,00,00,,,,,2.8,2.1,1.8*32
\c:1507783388545*61\$GPZDA,,,,,00,*48
\c:1507783388705*67\$IIDBT,020.37,f,006.21,M,003.35,F*27
\c:1507783388817*6B\$GPGLL,,,,,,V,N*64
\c:1507783388977*6C\$GPGSV,,,,,,,,,,,,,,,,,,,*79
\c:1507783389057*66\$IIHDM,009,M*35
\c:1507783389169*6A\$IIHDT,005,T*39
\c:1507783389362*63\$IIMWD,156.67,T,160.66,M,09.48,N,04.88,M*41
\c:1507783389425*67\$IIVDR,,,,,,N*0E
\c:1507783389477*60\$GPGSV,3,1,12,10,75,339,45,18,67,100,-0,32,49,261,47,24,43,060,47*69
\c:1507783389477*60\$GPGSV,3,2,12,14,34,251,49,08,09,290,42,27,08,256,45,138,38,209,-0*54
\c:1507783389477*60\$GPGSV,3,3,12,21,27,176,40,15,10,066,44,12,07,104,-0,25,01,137,-0*7F
\c:1507783389510*60\$GPZDA,225313.00,12,10,2017,00,00*64
\c:1507783389510*60\$GPGGA,225313,4157.7745,N,08737.6038,W,1,08,2.08,170.32,M,-34.238,M,,*72
\c:1507783389511*61\$GPRMC,225313,A,4157.7745,N,08737.6038,W,5.7408,0.042,121017,,*37
\c:1507783389511*61\$GPGSA,A,3,00,00,00,00,00,00,00,00,,,,,2.8,2.1,1.8*32
\c:1507783389617*64\$IIVHW,006,T,010,M,06.01,N,11.13,K*57
\c:1507783389697*6C\$IIVPW,-5.56,N,,*2A
\c:1507783389842*6A\$IIVTG,,,,,,N,,,N*69
\c:1507783390002*6E\$IIMWV,157,T,10.30,N,A*24
\c:1507783390112*6E\$IIVWT,157,R,10.30,N,05.30,M,,*33
\c:1507783390193*67\$IIHDT,004,T*38
\c:1507783390320*6D\$GPWCV,,N,,N*55
\c:1507783390449*65\$GPXTE,V,V,,R,N,N*0C
\c:1507783390479*66\$GPGSV,3,1,12,10,75,339,45,18,67,100,42,32,49,261,47,24,43,060,46*73
\c:1507783390480*60\$GPGSV,3,2,12,14,34,251,49,08,09,290,41,27,08,256,45,138,38,209,-0*57
\c:1507783390480*60\$GPGSV,3,3,12,21,27,176,39,15,10,066,44,12,07,104,-0,25,01,137,-0*71
\c:1507783390514*6C\$GPZDA,225314.00,12,10,2017,00,00*63
\c:1507783390514*6C\$GPGGA,225314,4157.7760,N,08737.6038,W,1,08,2.08,170.56,M,-34.238,M,,*70
\c:1507783390514*6C\$GPRMC,225314,A,4157.7760,N,08737.6038,W,5.9170,358.180,121017,,*32
\c:1507783390514*6C\$GPGSA,A,3,00,00,00,00,00,00,00,00,,,,,2.8,2.1,1.8*32
\c:1507783390592*62\$GPZDA,,,,,00,*48
\c:1507783390752*6C\$IIDBT,020.37,f,006.21,M,003.35,F*27
\c:1507783390865*67\$GPGLL,,,,,,V,N*64
\c:1507783391025*6A\$GPGSV,,,,,,,,,,,,,,,,,,,*79
\c:1507783391105*69\$IIHDM,004,M*38
\c:1507783391217*69\$IIHDT,000,T*3C
\c:1507783391409*60\$IIMWD,145.59,T,149.58,M,09.87,N,05.08,M*42
\c:1507783391473*6D\$IIVDR,,,,,,N*0E
\c:1507783391477*69\$GPGSV,3,1,12,10,75,339,47,18,67,100,42,32,49,261,47,24,43,060,46*71
\c:1507783391478*66\$GPGSV,3,2,12,14,34,251,48,08,09,290,40,27,08,256,44,138,38,209,44*4B
\c:1507783391478*66\$GPGSV,3,3,12,21,27,176,40,15,10,066,43,12,07,104,36,25,01,137,-0*60
\c:1507783391512*6B\$GPZDA,225315.00,12,10,2017,00,00*62
\c:1507783391512*6B\$GPGGA,225315,4157.7775,N,08737.6039,W,1,08,2.08,170.71,M,-34.238,M,,*71
\c:1507783391512*6B\$GPRMC,225315,A,4157.7775,N,08737.6039,W,6.0439,356.231,121017,,*33
\c:1507783391512*6B\$GPGSA,A,3,00,00,00,00,00,00,00,00,,,,,2.8,2.1,1.8*32
\c:1507783391665*68\$IIVHW,000,T,004,M,05.95,N,11.01,K*59
\c:1507783391745*6B\$IIVPW,-4.88,N,,*28
\c:1507783391889*64\$IIVTG,,,,,,N,,,N*69
\c:1507783392049*63\$IIMWV,148,R,05.83,N,A*20
\c:1507783392161*68\$IIVWT,164,R,10.73,N,05.52,M,,*30
\c:1507783392240*68\$IIHDT,000,T*3C
\c:1507783392369*62\$GPWCV,,N,,N*55
\c:1507783392476*6B\$GPGSV,3,1,12,10,75,339,47,18,67,100,42,32,49,261,48,24,43,060,47*7F
\c:1507783392476*6B\$GPGSV,3,2,12,14,34,251,48,08,09,290,39,27,08,256,44,138,38,209,44*45
\c:1507783392477*6A\$GPGSV,3,3,12,21,27,176,40,15,10,066,-0,12,07,104,37,25,01,137,38*6D
\c:1507783392496*65\$GPXTE,V,V,,R,N,N*0C
\c:1507783392505*6E\$GPZDA,225316.00,12,10,2017,00,00*61
\c:1507783392505*6E\$GPGGA,225316,4157.7790,N,08737.6041,W,1,08,2.08,170.80,M,-34.238,M,,*78
\c:1507783392505*6E\$GPRMC,225316,A,4157.7790,N,08737.6041,W,5.4974,353.194,121017,,*3E
\c:1507783392505*6E\$GPGSA,A,3,00,00,00,00,00,00,00,00,,,,,2.8,2.1,1.8*32
\c:1507783392641*6D\$GPZDA,,,,,00,*48
\c:1507783392801*67\$IIDBT,020.24,f,006.17,M,003.33,F*26
\c:1507783392912*64\$GPGLL,,,,,,V,N*64
\c:1507783393072*6A\$GPGSV,,,,,,,,,,,,,,,,,,,*79
\c:1507783393152*69\$IIHDM,004,M*38
\c:1507783393265*6E\$IIHDT,000,T*3C
\c:1507783393456*68\$IIMWD,136.53,T,140.53,M,07.56,N,03.89,M*43
\c:1507783393476*6A\$GPGSV,3,1,12,10,75,339,46,18,67,100,41,32,49,261,47,24,43,060,45*70
\c:1507783393477*6B\$GPGSV,3,2,12,14,34,251,48,08,09,290,40,27,08,256,44,138,38,209,44*4B
\c:1507783393477*6B\$GPGSV,3,3,12,21,27,176,40,15,10,066,-0,12,07,104,38,25,01,137,38*62
\c:1507783393507*6D\$GPZDA,225317.00,12,10,2017,00,00*60
\c:1507783393507*6D\$GPGGA,225317,4157.7805,N,08737.6044,W,1,08,2.08,171.01,M,-34.238,M,,*77
\c:1507783393507*6D\$GPRMC,225317,A,4157.7805,N,08737.6044,W,5.5535,353.609,121017,,*32
\c:1507783393507*6D\$GPGSA,A,3,00,00,00,00,00,00,00,00,,,,,2.8,2.1,1.8*32
\c:1507783393520*68\$IIVDR,,,,,,N*0E
\c:1507783393712*6B\$IIVHW,000,T,004,M,05.45,N,10.09,K*5D
\c:1507783393792*63\$IIVPW,-4.39,N,,*22
\c:1507783393936*63\$IIVTG,,,,,,N,,,N*69
\c:1507783394096*67\$IIMWV,161,T,10.06,N,A*24
\c:1507783394208*62\$IIVWT,161,R,10.06,N,05.18,M,,*39
\c:1507783394288*6A\$IIHDT,359,T*33
\c:1507783394416*6B\$GPWCV,,N,,N*55
\c:1507783394477*6C\$GPGSV,3,1,12,10,75,339,47,18,67,100,40,32,49,261,48,24,43,060,45*7F
\c:1507783394477*6C\$GPGSV,3,2,12,14,34,251,48,08,09,290,39,27,08,256,44,138,38,209,44*45
\c:1507783394478*63\$GPGSV,3,3,12,21,27,176,39,15,10,066,-0,12,07,104,37,25,01,137,37*6C
\c:1507783394508*65\$GPZDA,225318.00,12,10,2017,00,00*6F
\c:1507783394508*65\$GPGGA,225318,4157.7821,N,08737.6046,W,1,08,2.08,170.92,M,-34.238,M,,*77
\c:1507783394508*65\$GPRMC,225318,A,4157.7821,N,08737.6046,W,5.5938,355.156,121017,,*33
\c:1507783394508*65\$GPGSA,A,3,00,00,00,00,00,00,00,00,,,,,2.8,2.1,1.8*32
\c:1507783394545*6C\$GPXTE,V,V,,R,N,N*0C
\c:1507783394688*6E\$GPZDA,,,,,00,*48
\c:1507783394848*6C\$IIDBT,020.17,f,006.15,M,003.32,F*25
\c:1507783394960*67\$GPGLL,,,,,,V,N*64
\c:1507783395120*6A\$GPGSV,,,,,,,,,,,,,,,,,,,*79
\c:1507783395200*6B\$IIHDM,004,M*38
\c:1507783395312*69\$IIHDT,000,T*3C
\c:1507783395476*6C\$GPGSV,3,1,12,10,75,339,46,18,67,100,-0,32,50,262,47,24,43,060,46*60
\c:1507783395476*6C\$GPGSV,3,2,12,14,34,251,48,08,09,290,39,27,08,256,45,138,38,209,44*44
\c:1507783395476*6C\$GPGSV,3,3,12,21,27,176,39,15,10,066,47,12,07,104,37,25,01,137,35*70
\c:1507783395504*68\$GPZDA,225319.00,12,10,2017,00,00*6E
\c:1507783395504*68\$GPGGA,225319,4157.7837,N,08737.6047,W,1,08,2.08,171.04,M,-34.238,M,,*7E
\c:1507783395504*68\$GPRMC,225319,A,4157.7837,N,08737.6047,W,5.9280,357.701,121017,,*36
\c:1507783395504*68\$GPGSA,A,3,00,00,00,00,00,00,00,00,,,,,2.8,2.1,1.8*32
\c:1507783395505*69\$IIMWD,156.73,T,160.73,M,09.25,N,04.76,M*4A
\c:1507783395568*62\$IIVDR,,,,,,N*0E
\c:1507783395760*68\$IIVHW,002,T,006,M,05.37,N,09.94,K*54
\c:1507783395840*65\$IIVPW,-4.91,N,,*20
\c:1507783395983*6B\$IIVTG,,,,,,N,,,N*69
\c:1507783396143*6C\$IIMWV,133,R,04.47,N,A*25
\c:1507783396255*68\$IIVWT,159,R,09.11,N,04.69,M,,*3B
\c:1507783396336*6C\$IIHDT,005,T*39
\c:1507783396463*6B\$GPWCV,,N,,N*55
\c:1507783396476*6F\$GPGSV,3,1,12,10,75,339,46,18,67,100,41,32,50,262,48,24,43,060,45*74
\c:1507783396476*6F\$GPGSV,3,2,12,14,34,251,48,08,09,290,41,27,08,256,45,138,38,209,43*4C
\c:1507783396477*6E\$GPGSV,3,3,12,21,27,176,38,15,10,066,46,12,07,104,36,25,01,137,35*71
\c:1507783396513*6D\$GPZDA,225320.00,12,10,2017,00,00*64
\c:1507783396513*6D\$GPGGA,225320,4157.7855,N,08737.6048,W,1,08,2.08,171.10,M,-34.238,M,,*7A
\c:1507783396513*6D\$GPRMC,225320,A,4157.7855,N,08737.6048,W,5.9224,359.477,121017,,*35
\c:1507783396513*6D\$GPGSA,A,3,00,00,00,00,00,00,00,00,,,,,2.8,2.1,1.8*32
\c:1507783396592*64\$GPXTE,V,V,,R,N,N*0C
\c:1507783396735*6B\$GPZDA,,,,,00,*48
\c:1507783396895*6E\$IIDBT,020.04,f,006.11,M,003.30,F*21
\c:1507783397008*63\$GPGLL,,,,,,V,N*64
\c:1507783397167*6B\$GPGSV,,,,,,,,,,,,,,,,,,,*79
\c:1507783397248*65\$IIHDM,011,M*3C
\c:1507783397359*64\$IIHDT,007,T*3B
\c:1507783397477*6F\$GPGSV,3,1,12,10,75,339,46,18,67,100,40,32,50,262,49,24,43,060,45*74
\c:1507783397477*6F\$GPGSV,3,2,12,14,34,251,48,08,09,290,41,27,08,256,46,138,38,209,43*4F
\c:1507783397477*6F\$GPGSV,3,3,12,21,27,176,38,15,10,066,45,12,07,104,-0,25,01,137,35*6A
\c:1507783397514*6B\$GPZDA,225321.00,12,10,2017,00,00*65
\c:1507783397514*6B\$GPGGA,225321,4157.7871,N,08737.6048,W,1,08,2.08,170.73,M,-34.238,M,,*79
\c:1507783397514*6B\$GPRMC,225321,A,4157.7871,N,08737.6048,W,5.7338,2.264,121017,,*39
\c:1507783397514*6B\$GPGSA,A,3,00,00,00,00,00,00,00,00,,,,,2.8,2.1,1.8*32
\c:1507783397552*69\$IIMWD,165.41,T,169.40,M,10.01,N,05.15,M*48
\c:1507783397616*6A\$IIVDR,,,,,,N*0E
\c:1507783397807*64\$IIVHW,008,T,012,M,05.39,N,09.98,K*59
\c:1507783397887*6C\$IIVPW,-5.19,N,,*21
\c:1507783398032*65\$IIVTG,,,,,,N,,,N*69
\c:1507783398192*6E\$IIMWV,136,T,08.78,N,A*26
\c:1507783398304*63\$IIVWT,136,R,08.78,N,04.52,M,,*34
\c:1507783398383*6C\$IIHDT,005,T*39
\c:1507783398476*61\$GPGSV,3,1,12,10,75,339,47,18,67,100,40,32,50,262,48,24,43,060,44*75
